     2.10           Observation data    G (GPS)             RINEX VERSION / TYPE
sbf2rin                                 (14-JAN-17 00:25)   PGM / RUN BY / DATE 
LLI: only bit 0 (loss of lock bit) supported                COMMENT             
SEP1                                                        MARKER NAME
NML05A                                                      MARKER NUMBER
Time and Frequency  National Measurement Institute          OBSERVER / AGENCY
3252                SEPT POLARX2        3.1.0               REC # / TYPE / VERS 
JAVAD               JPSREGANT_SD_E                          ANT # / TYPE
 -4648181.1551  2560599.3495 -3526320.4742                  APPROX POSITION XYZ 
        0.0000        0.0000        0.0000                  ANTENNA: DELTA H/E/N
     1     1                                                WAVELENGTH FACT L1/2
     5    C1    L1    L2    P2    P1                        # / TYPES OF OBSERV 
    30.000                                                  INTERVAL            
  2017     1    13     0     0   30.0000000     GPS         TIME OF FIRST OBS   
  2017     1    14     0     0    0.0000000     GPS         TIME OF LAST OBS    
                                                            COMMENT             
                                                            END OF HEADER       
 17  1 13  0  0 30.0000000  0  9G01G06G24G28G19G30G17G13G15
  24429822.82708 128379584.82608 100036049.47907  24429825.97207  24429821.96907
  22776226.18108 119689892.92408  93264851.19008  22776228.48508  22776225.92608
  23912743.95308 125662322.85008  97918710.63407  23912745.51007  23912742.40007
  21508120.06909 113025932.72409  88072137.80609  21508119.26609  21508119.15809
  20695999.66809 108758226.25509  84746665.64209  20695996.32809  20695997.98809
  22778239.65307 119700446.29407  93273066.32907  22778240.43007  22778237.11207
  20059387.11909 105412803.78309  82139848.01409  20059385.74609  20059386.05409
  22354560.78909 117474008.05409  91538173.03609  22354559.34709  22354559.64009
  23238377.54808 122118493.17808  95157264.48208  23238377.23808  23238376.40808
 17  1 13  0  1  0.0000000  0  9G01G06G24G28G19G30G17G13G15
  24441999.22808 128443576.83308 100085913.35807  24442002.95707  24441999.18707
  22757686.96508 119592466.67708  93188934.70508  22757688.94908  22757686.41708
  23893644.85407 125561959.37607  97840505.39508  23893647.39008  23893644.61908
  21519447.38809 113085456.04009  88118519.59509  21519445.60109  21519446.00309
  20693485.48409 108745014.66509  84736370.89309  20693482.03509  20693483.86509
  22795433.01207 119790801.48907  93343472.97707  22795434.56207  22795431.78007
  20063467.89209 105434249.69509  82156559.10609  20063466.64209  20063467.06609
  22366479.38409 117536643.14909  91586979.55709  22366478.73709  22366479.16309
  23241694.47508 122135924.13608  95170847.03508  23241693.96608  23241693.85308
 17  1 13  0  1 30.0000000  0  9G01G06G24G28G19G30G17G13G15
  24454255.56807 128507983.95107 100136100.66207  24454259.50707  24454255.02707
  22739181.82208 119495222.92008  93113160.38508  22739184.22908  22739181.17408
  23874571.02607 125461722.55407  97762398.77507  23874573.03907  23874569.79707
  21530806.78009 113145147.47409  88165032.38209  21530804.68809  21530805.27309
  20691055.47709 108732244.19709  84726419.87409  20691052.18509  20691053.39209
  22812677.54707 119881421.89007  93414086.17307  22812679.23507  22812677.01107
  20067644.25109 105456195.98509  82173660.11209  20067643.01909  20067643.48609
  22378470.43009 117599654.37009  91636079.16009  22378469.56009  22378469.58609
  23245102.94108 122153833.22208  95184802.10709  23245102.15609  23245101.72409
 17  1 13  0  2  0.0000000  0  9G01G06G24G28G19G30G17G13G15
  24466591.21708 128572804.52908 100186610.13607  24466594.56907  24466590.33607
  22720711.54208 119398164.80708  93037530.76008  22720714.69808  22720711.13608
  23855521.47407 125361615.59107  97684393.37908  23855524.08908  23855519.92808
  21542197.12209 113205006.77909  88211675.97409  21542196.05009  21542195.39709
  20688708.98709 108719914.05609  84716811.97709  20688705.97909  20688707.34209
  22829973.11407 119972305.99607  93484904.98206  22829973.59506  22829971.60506
  20071915.32009 105478641.06909  82191149.78409  20071914.20909  20071914.53709
  22390531.79709 117663039.11809  91685469.84909  22390531.87709  22390531.04509
  23248601.62808 122172219.25908  95199128.85309  23248601.49609  23248600.75009
 17  1 13  0  2 30.0000000  0  9G01G06G24G28G19G30G17G13G15
  24479004.47607 128638036.05007 100237439.81807  24479007.18407  24479003.71007
  22702278.12508 119301295.00208  92962047.77308  22702281.03608  22702277.84208
  23836495.94407 125261639.81607  97606490.25008  23836498.98108  23836495.41608
  21553619.90509 113265033.01109  88258449.64509  21553618.16709  21553618.54709
  20686446.17209 108708023.10209  84707546.29709  20686443.12209  20686444.52209
  22847317.61706 120063451.83006  93555927.67806  22847318.40906  22847315.41506
  20076281.13509 105501582.81709  82209026.45809  20076279.83609  20076280.29209
  22402664.33709 117726794.00809  91735148.93209  22402663.41809  22402663.03309
  23252190.80308 122191080.27008  95213825.73209  23252190.13009  23252189.54609
 17  1 13  0  3  0.0000000  0  9G01G06G24G28G19G30G17G13G15
  24491495.00407 128703676.61807 100288588.29506  24491498.25506  24491494.22206
  22683880.77808 119204616.58408  92886713.97508  22683883.66008  22683880.54408
  23817497.60308 125161797.59008  97528691.09308  23817499.35608  23817496.77308
  21565074.32409 113325226.08609  88305353.32909  21565072.97509  21565072.80009
  20684267.02309 108696570.69009  84698622.34309  20684263.45709  20684265.01109
  22864708.61206 120154857.93406  93627153.18705  22864712.75405  22864709.97705
  20080740.91909 105525019.47509  82227288.78509  20080739.41409  20080739.94309
  22414866.21909 117790916.48109  91785114.47509  22414865.79109  22414865.63809
  23255869.34008 122210414.64308  95228891.44009  23255869.50509  23255868.87909
 17  1 13  0  3 30.0000000  0  8G01G06G24G28G19G17G13G15
  24504063.13407 128769724.71907 100340054.30506  24504066.98406  24504062.66106
  22665520.33808 119108132.95108  92811531.93309  22665523.68209  22665520.68009
  23798523.01908 125062091.83708  97450998.34008  23798525.43408  23798523.03908
  21576560.30509 113385585.97409  88352387.00109  21576559.05809  21576559.04609
  20682170.85209 108685556.26809  84690039.68209  20682167.50509  20682169.11909
  20085294.82409 105548949.43109  82245935.50309  20085293.32909  20085293.86309
  22427138.04209 117855404.06309  91835364.47509  22427137.05109  22427136.99509
  23259638.65108 122230221.13108  95244325.05909  23259638.62009  23259638.75209
 17  1 13  0  4  0.0000000  0  8G01G06G24G28G19G17G13G15
  24516709.35807 128836177.90307 100391835.96807  24516713.26807  24516708.60607
  22647197.66508 119011846.83508  92736503.81509  22647201.22009  22647197.79809
  23779576.25208 124962524.83508  97373413.68708  23779578.72008  23779576.02408
  21588078.06409 113446111.93709  88399550.05809  21588076.57609  21588076.66309
  20680158.18309 108674978.65909  84681797.39509  20680154.74909  20680156.35909
  20089941.79909 105573370.68009  82264965.04809  20089940.82409  20089941.08409
  22439478.37909 117920253.53509  91885896.50109  22439477.43309  22439477.39709
  23263497.71008 122250497.81308  95260125.03708  23263497.06608  23263496.68208
 17  1 13  0  4 30.0000000  0  8G01G06G24G28G19G17G13G15
  24529431.53707 128903034.71707 100443932.19007  24529435.48107  24529430.67007
  22628913.73608 118915761.74508  92661632.37309  22628916.66309  22628913.63009
  23760656.59708 124863099.06708  97295939.12008  23760658.42108  23760655.50508
  21599627.54409 113506804.36209  88446842.85109  21599626.46809  21599626.11209
  20678228.38709 108664837.79809  84673895.43409  20678225.11809  20678226.79309
  20094682.42009 105598281.98509  82284376.44409  20094680.92609  20094681.51109
  22451887.38809 117985462.43109  91936708.61509  22451886.45309  22451886.57709
  23267445.05508 122271243.52908  95276290.53708  23267444.38908  23267444.44108
 17  1 13  0  5  0.0000000  0  9G01G06G24G28G19G30G17G13G15
  24542230.81007 128970292.66207 100496340.88907  24542233.99607  24542229.93107
  22610667.97408 118819880.36108  92586919.65709  22610671.33209  22610667.85909
  23741763.47807 124763816.57407  97218576.12608  23741765.73708  23741762.92908
  21611208.39309 113567662.87409  88494265.05209  21611206.98709  21611207.08909
  20676381.55109 108655132.60309  84666332.94009  20676378.20009  20676379.67609
  22934775.06606 120523070.43816                                                
  20099515.80509 105623681.18109  82304168.02509  20099514.21009  20099514.77109
  22464364.09109 118051027.84109  91987798.52309  22464363.63309  22464363.24209
  23271481.82908 122292456.15908  95292819.84809  23271481.84709  23271480.96209
 17  1 13  0  5 30.0000000  0  9G01G06G24G28G19G30G17G13G15
  24555104.86107 129037950.04407 100549060.87907  24555109.30607  24555105.05107
  22592461.88608 118724205.96308  92512368.19309  22592464.29109  22592461.69209
  23722898.71108 124664680.57608  97141327.34908  23722901.21508  23722897.35308
  21622821.26909 113628687.25509  88541816.50609  21622819.91009  21622819.22209
  20674617.55909 108645862.56709  84659109.55109  20674614.09209  20674615.78609
  22952413.22006 120615755.05806                                                
  20104441.57009 105649567.04309  82324338.83009  20104440.29309  20104440.72509
  22476907.86709 118116946.89309  92039163.97409  22476907.30609  22476907.37809
  23275607.28008 122314134.33108  95309711.89308  23275606.79608  23275606.17208
 17  1 13  0  6  0.0000000  0  9G01G06G24G28G19G30G17G13G15
  24568055.41107 129106004.73407 100602090.43407  24568059.42407  24568054.80907
  22574295.39808 118628741.53808  92437980.37909  22574297.49409  22574295.10209
  23704061.89408 124565692.97708  97064194.22308  23704064.75208  23704060.93308
  21634464.99609 113689877.00209  88589496.80509  21634463.86809  21634464.01809
  20672935.98809 108637026.54709  84652224.34509  20672932.74409  20672934.24509
  22970098.69806 120708690.64206                                                
  20109459.65009 105675937.15009  82344886.96509  20109458.32409  20109458.69009
  22489518.87009 118183216.57709  92090802.68409  22489517.40209  22489517.83609
  23279820.48808 122336276.55608  95326965.55708  23279820.21208  23279819.56408
 17  1 13  0  6 30.0000000  0  9G01G06G24G28G19G30G17G13G15
  24581081.06607 129174454.70907 100655428.04407  24581084.90107  24581080.67707
  22556169.62908 118533490.15408  92363758.56609  22556172.68209  22556169.61909
  23685253.60408 124466855.87208  96987178.32408  23685256.51408  23685253.16608
  21646140.46209 113751231.82609  88637305.75009  21646138.47809  21646139.62309
  20671336.86009 108628623.20809  84645676.29309  20671333.63409  20671335.31809
  22987831.70007 120801875.47807                                                
  20114569.61709 105702789.61209  82365810.96909  20114568.06409  20114568.76809
  22502195.70209 118249834.16409  92142712.48109  22502194.83609  22502194.96209
  23284122.25308 122358880.58808  95344579.04709  23284122.11709  23284121.00309
 17  1 13  0  7  0.0000000  0  8G01G06G24G28G19G17G13G15
  24594182.25007 129243298.12407 100709072.19406  24594184.87706  24594180.78006
  22538085.39508 118438455.07608  92289705.31909  22538087.68109  22538084.88209
  23666474.20207 124368172.24107  96910282.04408  23666477.83008  23666474.17108
  21657847.60209 113812751.66109  88685243.26109  21657845.67609  21657845.96309
  20669820.11109 108620652.28709  84639465.19509  20669816.67409  20669818.54309
  20119770.88409 105730122.94909  82387109.67009  20119769.56709  20119770.20009
  22514938.17909 118316797.21109  92194891.45509  22514937.89809  22514937.39309
  23288511.07008 122381944.85208  95362551.19309  23288511.25809  23288510.71009
 17  1 13  0  7 30.0000000  0  8G01G06G24G28G19G17G13G15
  24607357.05307 129312532.68907 100763021.16106  24607360.20206  24607355.79906
  22520042.12608 118343639.19808  92215822.85509  22520045.15809  22520041.94009
  23647726.19008 124269644.43908  96833507.19408  23647728.35708  23647724.67708
  21669585.26909 113874435.94309  88733308.90709  21669583.98509  21669584.22309
  20668385.44209 108613112.88509  84633590.33009  20668382.09909  20668383.68909
  20125063.52509 105757935.16609  82408781.53109  20125062.15509  20125062.42809
  22527746.53109 118384102.52409  92247337.10909  22527745.77709  22527745.45709
  23292987.43608 122405468.16308  95380881.03409  23292986.85109  23292986.76809
 17  1 13  0  8  0.0000000  0  8G01G06G24G28G19G17G13G15
  24620605.83007 129382156.62807 100817273.50306  24620609.30306  24620605.40906
  22502041.38208 118249045.71808  92142113.68309  22502044.21809  22502040.63709
  23629006.73308 124171274.52708  96756855.31108  23629008.78508  23629005.80708
  21681355.04409 113936285.14709  88781503.06409  21681353.75409  21681353.53609
  20667032.52609 108606004.03909  84628050.97609  20667029.23809  20667030.63609
  20130446.77609 105786224.53509  82430825.19309  20130445.43109  20130445.97609
  22540618.42409 118451747.27209  92300047.28709  22540618.13909  22540617.84709
  23297550.93708 122429448.36608  95399566.86109  23297550.60909  23297549.98509
 17  1 13  0  8 30.0000000  0  8G01G06G24G28G19G17G13G15
  24633929.10907 129452167.76907 100871827.56106  24633931.91906  24633927.68306
  22484083.95808 118154677.69708  92068580.20609  22484086.41209  22484083.18309
  23610317.95808 124073065.66508  96680328.97008  23610320.36708  23610317.16508
  21693155.82009 113998298.59109  88829825.19009  21693154.50909  21693154.35409
  20665761.86509 108599325.13909  84622846.64209  20665758.54509  20665759.82909
  20135920.44009 105814988.94109  82453239.01609  20135919.01909  20135919.29209
  22553554.89508 118519728.68208  92353019.78409  22553554.48409  22553553.75609
  23302200.30908 122453883.71608  95418607.38809  23302200.41809  23302200.37509
 17  1 13  0  9  0.0000000  0  9G01G06G24G28G19G30G17G13G15
  24647324.07607 129522564.07407 100926681.78505  24647327.23905  24647324.50905
  22466170.00608 118060538.30608  91995224.85509  22466172.74009  22466169.22109
  23591660.44307 123975019.97707  96603929.80308  23591662.24108  23591659.41008
  21704987.98009 114060476.26209  88878275.30509  21704986.08209  21704986.60509
  20664572.40009 108593075.24409  84617976.60009  20664569.02809  20664571.09009
  23077197.35807 121271483.43107                                                
  20141483.98809 105844226.81609  82476021.77609  20141482.87909  20141483.18909
  22566554.83209 118588043.79409  92406252.30309  22566554.58909  22566553.87409
  23306937.07108 122478772.56708  95438001.24509  23306936.26309  23306935.54209
 17  1 13  0  9 30.0000000  0  8G06G24G28G19G30G17G13G15
  22448299.55708 117966630.31908  91922049.86709  22448302.87609  22448298.95409
  23573034.43708 123877139.98208  96527659.66908  23573036.11608  23573033.29108
  21716851.24509 114122817.79209  88926853.08909  21716850.57609  21716849.22509
  20663464.49909 108587252.67209  84613439.53909  20663461.03909  20663462.53309
  23095207.71307 121366130.24207                                                
  20147137.60709 105873936.02609  82499171.80709  20147136.25409  20147136.82809
  22579618.09409 118656689.78209  92459742.67409  22579616.57909  22579616.71309
  23311758.75408 122504112.43408  95457746.57709  23311758.63609  23311758.36809
 17  1 13  0 10  0.0000000  0  7G06G24G28G19G17G13G15
  22430474.19209 117872957.11709  91849057.80309  22430476.95609  22430473.82509
  23554440.04208 123779428.07308  96451520.58408  23554442.68808  23554439.29508
  21728745.17609 114185322.97709  88975558.40909  21728744.08709  21728744.18009
  20662437.87009 108581857.61609  84609235.60709  20662434.46309  20662436.16909
  20152880.48009 105904114.95409  82522687.85409  20152879.13809  20152879.34409
  22592743.15409 118725663.69609  92513488.54309  22592742.08009  22592742.61009
  23316666.49308 122529902.68408  95477842.86909  23316665.95709  23316665.39109
 17  1 13  0 10 30.0000000  0  9G01G06G24G28G19G30G17G13G15
  24687947.84606 129736042.55906                                                
  22412694.07708 117779521.54408  91776250.87009  22412696.07109  22412693.56409
  23535878.56508 123681887.07608  96375514.67608  23535881.32608  23535877.85508
  21740670.98209 114247991.53609  89024391.02809  21740669.23509  21740669.43409
  20661492.20209 108576888.78509  84605363.80709  20661488.70109  20661490.44909
  23131363.26406 121556136.17906                                                
  20158712.36409 105934761.48209  82546568.26009  20158710.96309  20158711.63709
  22605930.39609 118794962.44309  92567487.51309  22605930.12009  22605929.79709
  23321659.64908 122556140.80008  95498288.11309  23321659.58409  23321659.09309
 17  1 13  0 11  0.0000000  0  9G01G06G24G28G19G30G17G13G15
  24701633.29206 129807958.16106                                                
  22394959.88309 117686326.63009  91703631.49609  22394962.09209  22394959.51309
  23517350.73608 123584519.07408  96299643.48508  23517352.60508  23517349.75808
  21752627.63309 114310823.03409  89073350.63009  21752626.48009  21752625.94709
  20660627.55309 108572344.93309  84601823.15409  20660624.01909  20660625.72909
  23149508.83906 121651491.73606                                                
  20164632.85709 105965873.43709  82570811.33909  20164631.31809  20164632.00609
  22619178.95709 118864583.14709  92621737.41009  22619178.79109  22619178.05209
  23326737.01208 122582824.81708  95519080.81109  23326737.38809  23326736.69309
 17  1 13  0 11 30.0000000  0  9G01G06G24G28G19G30G17G13G15
  24715390.40006 129880248.62606                                                
  22377271.70809 117593375.75809  91631202.30109  22377274.62609  22377271.36709
  23498855.45008 123487326.50008  96223909.07108  23498857.84508  23498854.44608
  21764614.07109 114373817.82509  89122437.45609  21764613.39109  21764613.91209
  20659843.67609 108568225.34309  84598613.09109  20659840.28109  20659841.77009
  23167698.71207 121747080.29207                                                
  20170641.36809 105997449.35409  82595415.94909  20170640.17509  20170640.29209
  22632487.82209 118934523.34709  92676236.22109  22632488.29309  22632487.05809
  23331900.04508 122609953.05708  95540219.69408  23331899.34508  23331898.91508
 17  1 13  0 12  0.0000000  0  8G06G24G28G19G30G17G13G15
  22359630.97209 117500671.69609  91558965.37109  22359633.10109  22359629.58309
  23480394.21208 123390312.25408  96148313.55708  23480395.99708  23480393.79308
  21776633.39809 114436975.29009  89171651.04509  21776631.99709  21776631.79209
  20659140.00909 108564528.95809  84595732.81409  20659136.61009  20659138.46609
  23185932.61206 121842899.95906                                                
  20176737.92209 106029487.01309  82620380.35009  20176736.75409  20176737.18709
  22645857.30509 119004779.53709  92730981.25509  22645856.70809  22645856.27709
  23337146.19108 122637523.52408  95561703.14509  23337146.33409  23337145.46409
 17  1 13  0 12 30.0000000  0  9G01G06G24G28G19G30G17G13G15
  24743117.19506 130025944.35406                                                
  22342037.05609 117408217.54709  91486923.25409  22342039.63009  22342036.32809
  23461967.42008 123293478.83408  96072858.98408  23461969.32208  23461966.84608
  21788682.79909 114500295.75609  89220991.63109  21788681.69409  21788681.27509
  20658517.09409 108561254.87309  84593181.58409  20658513.71409  20658515.30309
  23204210.63807 121938949.10307                                                
  20182922.09709 106061984.52009  82645703.08509  20182920.66209  20182921.03009
  22659286.44609 119075349.16909  92785970.56009  22659285.27209  22659285.40009
  23342476.91008 122665534.40408  95583529.77609  23342476.61609  23342476.10509
 17  1 13  0 13  0.0000000  0  8G06G24G28G19G30G17G13G15
  22324491.75009 117316016.40309  91415078.20609  22324494.25909  22324491.36109
  23443575.54008 123196828.70608  95997547.22008  23443577.31808  23443574.43408
  21800763.02009 114563778.34109  89270458.57509  21800761.92109  21800761.63309
  20657974.29609 108558402.04209  84590958.60809  20657970.84409  20657972.40009
  23222530.56607 122035226.04007                                                
  20189193.43109 106094939.85809  82671382.56709  20189191.91709  20189192.34209
  22672774.27909 119146229.27109  92841201.77909  22672773.81609  22672773.37309
  23347890.71108 122693983.91908  95605698.23208  23347889.85408  23347889.46908
 17  1 13  0 13 30.0000000  0  9G01G06G24G28G19G30G17G13G15
  24771119.14406 130173112.73606                                                
  22306995.38909 117224071.47709  91343432.84809  22306997.58009  22306994.53809
  23425218.70708 123100364.18908  95922380.10108  23425220.34508  23425217.92008
  21812874.58209 114627423.19409  89320051.91509  21812873.30909  21812872.94009
  20657511.32209 108555969.43909  84589063.08709  20657507.92709  20657509.62709
  23240894.65307 122131729.26307                                                
  20195551.15309 106128351.23709  82697417.41209  20195549.79609  20195550.24809
  22686320.76408 119217416.91508  92896672.66008  22686320.25108  22686319.73808
  23353387.14208 122722869.93208  95628206.74808  23353387.37408  23353385.91208
 17  1 13  0 14  0.0000000  0  9G01G06G24G28G19G30G17G13G15
  24785225.84306 130247243.77906                                                
  22289547.38108 117132385.73608  91271989.42909  22289551.17809  22289547.29409
  23406898.03708 123004088.04808  95847359.74808  23406899.80108  23406897.62108
  21825016.36809 114691230.30809  89369771.76909  21825014.73209  21825015.30309
  20657128.17209 108553956.09009  84587494.25409  20657124.74309  20657126.45109
  23259302.63207 122228456.84407                                                
  20201995.69909 106162216.67009  82723806.05709  20201994.36609  20201994.97009
  22699924.99408 119288908.96508  92952380.70209  22699924.99409  22699924.01109
  23358966.56108 122752190.40808  95651053.89808  23358966.92408  23358965.56908
 17  1 13  0 14 30.0000000  0  9G01G06G24G28G19G30G17G13G15
  24799401.74707 130321736.27707                                                
  22272150.81409 117040961.87409  91200750.07309  22272152.75809  22272150.20809
  23388613.50208 122908002.26108  95772487.74908  23388615.52808  23388612.97408
  21837189.26509 114755198.77709  89419617.31509  21837188.64209  21837187.78009
  20656824.61609 108552360.84209  84586251.20409  20656821.32009  20656822.84109
  23277752.16707 122325406.85007                                                
  20208526.03409 106196533.87609  82750546.73109  20208524.80109  20208524.97609
  22713587.13608 119360702.35708  93008323.55309  22713587.16409  22713586.10509
  23364628.22408 122781943.15308  95674237.83608  23364628.43708  23364627.46608
 17  1 13  0 15  0.0000000  0  9G01G06G24G28G19G30G17G13G15
  24813646.96907 130396588.44307                                                
  22254803.47209 116949803.55709  91129717.62709  22254806.24309  22254803.47009
  23370365.41908 122812110.46008  95697766.86708  23370367.83508  23370365.35908
  21849392.89409 114819329.29109  89469589.13109  21849392.07809  21849391.15409
  20656600.42009 108551183.04009  84585333.44709  20656596.97509  20656598.67909
  23296241.75907 122422578.14807                                                
  20215142.07409 106231301.05609  82777638.03609  20215140.55509  20215141.37109
  22727306.24109 119432794.70509  93064499.40009  22727305.28309  22727304.96309
  23370372.30208 122812126.75108  95697757.51009  23370372.29509  23370371.11809
 17  1 13  0 15 30.0000000  0  8G06G24G28G19G30G17G13G15
  22237507.87809 116858913.22609  91058894.00709  22237510.59509  22237506.81809
  23352155.48008 122716414.20008  95623198.40708  23352157.80908  23352154.99308
  21861627.19109 114883621.06909  89519686.60109  21861625.73609  21861626.01309
  20656455.41409 108550421.15609  84584739.77809  20656452.20209  20656453.71509
  23314774.39706 122519968.42006                                                
  20221843.12009 106266515.97309  82805078.22409  20221841.71209  20221842.27909
  22741080.95909 119505182.31109  93120905.33409  22741079.94109  22741079.89509
  23376196.90008 122842738.62908  95721610.92009  23376198.00109  23376196.95209
 17  1 13  0 16  0.0000000  0  9G01G06G24G28G19G30G17G13G15
  24842337.27706 130547362.18706                                                
  22220263.79709 116768294.46409  90988282.00809  22220266.15109  22220263.44209
  23333983.29708 122620916.54008  95548784.66809  23333985.31009  23333982.62609
  21873892.30209 114948074.30709  89569909.89009  21873891.18909  21873891.18709
  20656389.39309 108550074.35509  84584469.54909  20656385.84909  20656387.62809
  23333348.31107 122617576.41507                                                
  20228629.19809 106302177.01509  82832866.04309  20228627.92809  20228628.49709
  22754911.75609 119577862.76109  93177539.38209  22754911.60609  22754911.43109
  23382104.02408 122873777.27208  95745796.82008  23382104.07808  23382102.78208
 17  1 13  0 16 30.0000000  0  9G06G12G24G28G19G30G17G13G15
  22203071.62209 116677949.99109  90917883.74609  22203074.29009  22203071.12009
  25290300.09406 132901429.98716                                                
  23315848.09208 122525619.92508  95474527.62508  23315850.79908  23315847.04408
  21886188.05409 115012688.59809  89620258.67509  21886187.18909  21886186.63109
  20656402.15109 108550141.61609  84584521.96609  20656398.76409  20656400.55609
  23351964.33007 122715400.05507  95622401.35816  23351968.69106  23351963.44006
  20235499.76509 106338281.94009  82860999.75209  20235498.34309  20235498.93809
  22768797.30408 119650832.77408  93234399.12509  22768797.00109  22768797.21509
  23388090.89608 122905240.29308  95770313.42509  23388091.33609  23388090.57909
 17  1 13  0 17  0.0000000  0  8G06G24G28G19G30G17G13G15
  22185932.05809 116587882.76809  90847701.50309  22185935.17609  22185932.15009
  23297752.83808 122430526.72808  95400429.05609  23297755.22609  23297751.70009
  21898514.43909 115077463.83209  89670732.86709  21898512.93009  21898513.01809
  20656493.56609 108550621.57609  84584895.95909  20656490.50909  20656491.85209
  23370620.89207 122813437.57207  95698794.11006  23370623.49606  23370618.78706
  20242454.36309 106374828.36109  82889477.46909  20242452.93409  20242453.20409
  22782737.81908 119724089.17008  93291481.94809  22782737.55809  22782735.74609
  23394158.17808 122937125.53808  95795159.04508  23394158.29808  23394158.27608
 17  1 13  0 17 30.0000000  0  8G06G24G28G19G30G17G13G15
  22168846.30909 116498095.84509  90777737.69209  22168849.37909  22168846.03109
  23279696.01808 122335639.51108  95326491.01809  23279698.56509  23279695.68309
  21910870.95109 115142399.60609  89721332.17809  21910870.04509  21910870.16409
  20656663.30109 108551513.25709  84585590.78009  20656659.74609  20656661.57009
  23389317.10107 122911687.17307  95775352.14605  23389318.14205  23389314.80305
  20249492.73509 106411814.62009  82918297.92309  20249491.53209  20249491.59909
  22796731.51609 119797629.15809  93348785.83409  22796731.02909  22796730.07109
  23400306.61808 122969431.08608  95820332.12909  23400307.45209  23400305.64509
 17  1 13  0 18  0.0000000  0  9G06G12G24G28G19G30G17G13G15
  22151814.11809 116408592.44609  90707994.79709  22151817.20209  22151814.64609
  25249124.24006 132685050.05406                                                
  23261679.49908 122240961.24308  95252715.78209  23261681.74009  23261678.98209
  21923258.60209 115207496.03209  89772056.63809  21923257.27509  21923257.26209
  20656911.18409 108552815.71309  84586605.68309  20656907.79809  20656909.40509
  23408053.69006 123010147.29906  95852074.23505  23408054.99305  23408052.11805
  20256614.15909 106449238.72409  82947459.56109  20256612.59409  20256613.28509
  22810779.59909 119871450.08309  93406308.60209  22810778.66009  22810778.37909
  23406533.48008 123002154.95108  95845831.21108  23406533.90308  23406532.40808
 17  1 13  0 18 30.0000000  0 10G06G12G24G28G19G02G30G17G13G15
  22134837.06709 116319375.51109  90638475.15009  22134839.75209  22134836.29909
  25235383.91206 132612840.58306                                                
  23243703.50408 122146494.36208  95179105.24809  23243705.03109  23243702.46909
  21935676.45009 115272752.81809  89822906.09309  21935675.64009  21935675.59509
  20657237.03109 108554527.80009  84587939.77309  20657233.59509  20657235.12609
  24640129.70007 129484750.00917                                                
  23426828.63706 123108816.14906  95928959.00705  23426833.67905  23426828.86005
  20263818.62909 106487098.64309  82976960.78709  20263817.49009  20263817.70709
  22824879.42208 119945548.52408  93464047.63209  22824879.19309  22824879.24809
  23412839.95308 123035294.93408  95871654.55708  23412838.68308  23412839.23608
 17  1 13  0 19  0.0000000  0  9G06G24G28G19G02G30G17G13G15
  22117914.63109 116230447.90109  90569180.95009  22117917.29709  22117914.29209
  23225767.07908 122052240.93608  95105661.07009  23225769.71009  23225766.50509
  21948125.07509 115338169.71509  89873880.26909  21948123.83209  21948123.98709
  20657640.33909 108556648.22609  84589592.05809  20657636.94609  20657638.67709
  24617641.53607 129366576.28307                                                
  23445644.83107 123207691.78707  96006005.03505  23445649.14705  23445643.89205
  20271105.65709 106525391.69609  83006799.51809  20271104.13309  20271104.77809
  22839033.02209 120019921.45309  93522000.52009  22839032.10209  22839031.25209
  23419225.01308 123068848.82508  95897800.44409  23419224.86009  23419224.34709
 17  1 13  0 19 30.0000000  0 10G06G12G24G28G19G02G30G17G13G15
  22101048.02609 116141812.61109  90500114.52809  22101050.72609  22101047.50809
  25207879.23206 132468306.91216                                                
  23207872.74108 121958203.85908  95032385.45309  23207874.52009  23207872.06309
  21960603.68709 115403746.61409  89924979.12409  21960602.95709  21960602.50709
  20658121.42509 108559175.75209  84591561.55609  20658118.08909  20658119.59409
  24595141.20007 129248336.27507                                                
  23464499.31507 123306772.41007  96083210.63005  23464502.06205  23464497.72105
  20278474.71309 106564116.10409  83036974.37909  20278473.32609  20278473.91909
  22853237.37109 120094566.03009  93580165.12209  22853235.77209  22853236.40909
  23425688.98708 123102814.58108  95924267.22808  23425688.69408  23425687.06608
 17  1 13  0 20  0.0000000  0  9G06G24G28G19G02G30G17G13G15
  22084237.80509 116053472.95409  90431278.43809  22084240.39109  22084237.34509
  23190019.54208 121864386.02308  94959280.67609  23190021.34609  23190018.82909
  21973113.03509 115469483.42709  89976202.60409  21973111.90809  21973111.68309
  20658679.73409 108562109.32109  84593847.45709  20658676.33809  20658677.97809
  24572629.21906 129130032.61006                                                
  23483392.52808 123406056.53508  96160574.79705  23483394.16205  23483391.29005
  20285925.39209 106603270.32409  83067484.14509  20285924.12709  20285924.28909
  22867492.87208 120169478.98108  93638538.81609  22867491.93509  22867491.90709
  23432230.04708 123137190.18008  95951053.36608  23432230.19308  23432229.42708
 17  1 13  0 20 30.0000000  0  9G06G24G28G19G02G30G17G13G15
  22067483.82109 115965431.67709  90362674.90009  22067486.64809  22067483.54309
  23172208.74108 121770789.74308  94886348.54309  23172210.83809  23172208.20109
  21985653.19709 115535380.01509  90027550.55809  21985651.88109  21985651.81409
  20659315.04909 108565447.72109  84596448.81109  20659311.46709  20659313.28709
  24550103.27106 129011667.78606 100528565.49016  24550102.96406  24550102.74006
  23502323.56007 123505542.21507  96238096.21905  23502325.16405  23502323.12205
  20293457.53009 106642851.61609  83098326.71409  20293456.22709  20293456.76809
  22881798.70908 120244657.54508  93697119.50009  22881798.31309  22881797.75209
  23438849.26908 123171973.05208  95978156.87408  23438849.08708  23438847.97108
 17  1 13  0 21  0.0000000  0  9G06G24G28G19G02G30G17G13G15
  22050787.43909 115877691.90509  90294306.28409  22050790.05509  22050787.00409
  23154440.88808 121677417.73208  94813591.15409  23154442.65809  23154440.14509
  21998223.34609 115601436.19509  90079022.89109  21998222.04309  21998222.00909
  20660027.15509 108569190.04309  84599364.91309  20660023.70209  20660025.21509
  24527568.95107 128893244.46407 100436287.60006  24527567.49506  24527567.49206
  23521292.79307 123605227.57907                                                
  20301070.61409 106682858.26909  83129500.72909  20301069.26509  20301069.57809
  22896154.84708 120320098.82508  93755904.85808  22896154.14508  22896153.66608
  23445544.71808 123207161.33908  96005576.27708  23445545.22508  23445544.14708
 17  1 13  0 21 30.0000000  0  9G06G24G28G19G02G30G17G13G15
  22034148.76709 115790256.47509  90226174.80809  22034152.08909  22034148.58209
  23136715.89908 121584272.06108  94741010.14109  23136717.89409  23136715.19709
  22010823.46309 115667651.68109  90130619.35909  22010822.50809  22010822.57109
  20660815.84709 108573334.81009  84602594.60009  20660812.40809  20660813.97509
  24505023.27107 128774764.85207 100343965.95906  24505022.27306  24505021.10606
  23540299.98806 123705110.85606                                                
  20308764.22809 106723287.96209  83161004.38209  20308762.88209  20308763.20309
  22910560.29208 120395799.13808  93814892.15008  22910558.88908  22910559.34408
  23452317.72608 123242752.59108  96033309.67008  23452318.14008  23452316.83308
 17  1 13  0 22  0.0000000  0  9G06G24G28G19G02G30G17G13G15
  22017569.18809 115703128.45109  90158282.87009  22017571.49609  22017568.97209
  23119033.97708 121491355.75208  94668607.87509  23119036.45909  23119032.95509
  22023454.40209 115734026.27809  90182339.79309  22023452.99609  22023452.78709
  20661680.91409 108577880.91809  84606137.02409  20661677.31609  20661679.17509
  24482466.83107 128656232.04907 100251602.74906  24482466.30106  24482465.49106
  23559345.57507 123805190.14007                                                
  20316537.66109 106764138.40509  83192835.90309  20316536.23509  20316536.67009
  22925013.83308 120471756.12208  93874079.35608  22925013.57808  22925013.54308
  23459167.09008 123278744.81308  96061355.49108  23459167.40008  23459166.02908
 17  1 13  0 22 30.0000000  0  8G06G24G28G19G02G17G13G15
  22001048.20509 115616310.93309  90090632.89509  22001051.07209  22001047.81309
  23101397.02508 121398671.68708  94596386.54409  23101399.17609  23101395.87609
  22036115.29109 115800559.99909  90234184.21809  22036114.54009  22036113.84409
  20662622.23209 108582827.56509  84609991.55509  20662618.84109  20662620.43609
  24459901.11707 128537648.86207 100159200.37205  24459900.41305  24459900.52205
  20324390.80409 106805407.85009  83224993.91509  20324389.57609  20324390.12309
  22939515.87408 120547966.62508  93933464.15108  22939515.96308  22939515.62108
  23466092.00508 123315135.79908  96089712.09508  23466091.92408  23466091.57908
 17  1 13  0 23  0.0000000  0  8G06G24G28G19G02G17G13G15
  21984587.18809 115529806.60909  90023226.93009  21984589.36809  21984586.67209
  23083804.38808 121306221.96308  94524347.79309  23083806.07009  23083803.61109
  22048806.70609 115867252.52809  90286152.40709  22048804.75409  22048805.31909
  20663639.30909 108588172.70109  84614156.60009  20663636.04109  20663637.73509
  24437327.07707 128419017.38407 100066760.33806  24437324.78106  24437325.45606
  20332323.28809 106847093.95409  83257476.59409  20332322.11909  20332322.65909
  22954066.12708 120624427.05608  93993043.66208  22954065.85708  22954065.51408
  23473091.98408 123351922.89508  96118377.36908  23473092.43308  23473091.61808
 17  1 13  0 23 30.0000000  0  8G06G24G28G19G02G17G13G15
  21968185.81709 115443618.96709  89956067.75009  21968188.35409  21968185.56109
  23066257.12208 121214009.84108  94452494.24409  23066258.46209  23066256.48809
  22061527.76909 115934104.29609  90338244.66109  22061526.54309  22061526.29309
  20664732.24809 108593915.87709  84618631.80509  20664728.78809  20664730.41409
  24414743.38707 128300340.48707  99974284.98806  24414742.24406  24414741.33006
  20340335.00409 106889194.96809  83290282.56909  20340333.75409  20340334.11509
  22968663.76108 120701135.21808  94052816.21208  22968662.58008  22968662.08108
  23480168.72208 123389104.71308  96147350.14509  23480168.40009  23480166.92309
 17  1 13  0 24  0.0000000  0  9G06G24G28G19G02G30G17G13G15
  21951845.43409 115357750.20109  89889157.06209  21951848.24709  21951845.07709
  23048754.82308 121122037.07608  94380827.21109  23048757.58909  23048754.35509
  22074279.17409 116001114.25209  90390460.21709  22074278.34009  22074278.16409
  20665900.53709 108600055.12509  84623415.63909  20665897.04609  20665898.75309
  24392150.93306 128181620.46506  99881775.88006  24392150.79706  24392149.14006
  23635889.08806 124207440.15316                                                
  20348425.05309 106931708.29209  83323409.83209  20348423.90809  20348424.34509
  22983307.45108 120778087.52108  94112779.00707  22983306.79307  22983305.87207
  23487317.98108 123426677.75508  96176627.81609  23487318.07909  23487317.12909
 17  1 13  0 24 30.0000000  0  8G06G24G28G19G02G17G13G15
  21935566.59409 115272203.62809  89822497.41009  21935569.00809  21935566.07809
  23031299.25608 121030306.63708  94309348.98309  23031301.31609  23031298.43509
  22087061.15008 116068282.64908  90442799.19109  22087060.02409  22087059.84709
  20667143.88909 108606589.35809  84628507.25909  20667140.54309  20667142.26609
  24369552.11107 128062860.17707  99789235.44206  24369551.60506  24369550.15906
  20356593.10909 106974631.59409  83356856.55809  20356591.83909  20356592.30509
  22997996.45108 120855280.66008  94172929.41307  22997996.02607  22997995.62207
  23494541.46408 123464640.41008  96206209.08808  23494541.37208  23494540.95708
 17  1 13  0 25  0.0000000  0  9G06G24G28G19G02G30G17G13G15
  21919349.98709 115186982.48109  89756091.33609  21919352.11309  21919349.40709
  23013889.80108 120938821.57508  94238061.95209  23013892.12509  23013889.63109
  22099873.37009 116135609.39009  90495261.56509  22099871.89409  22099871.72509
  20668462.26609 108613517.40509  84633905.73809  20668458.90909  20668460.46109
  24346946.55207 127944062.54807  99696665.89806  24346944.58706  24346944.07106
  23674376.10007 124409690.04007  96942631.73815  23674380.64905  23674375.04405
  20364838.69309 107017962.88309  83390621.19509  20364837.44409  20364837.88209
  23012730.80708 120932712.24208  94233265.72407  23012730.13307  23012729.92807
  23501839.22808 123502990.38008  96236092.13808  23501839.42908  23501838.70408
 17  1 13  0 25 30.0000000  0  9G06G24G28G19G02G30G17G13G15
  21903195.06409 115102089.28909  89689940.80909  21903197.09909  21903194.18309
  22996528.29208 120847583.95108  94166967.73109  22996530.17209  22996527.71709
  22112714.77609 116203094.09609  90547847.03409  22112713.43909  22112713.78209
  20669855.32709 108620838.04809  84639610.13909  20669851.70809  20669853.50409
  24324332.47007 127825229.83907  99604069.16706  24324330.82906  24324331.00306
  23693673.80707 124511090.72907  97021645.19306  23693677.62006  23693671.98706
  20373161.71509 107061700.08309  83424702.12409  20373160.33209  20373161.16809
  23027510.71008 121010378.82108  94293785.10707  23027510.32107  23027509.02407
  23509210.41908 123541725.12008  96266275.00108  23509210.85608  23509209.54508
 17  1 13  0 26  0.0000000  0  9G06G24G28G19G02G30G17G13G15
  21887103.35809 115017527.51809  89624048.56809  21887105.64409  21887102.89109
  22979213.47708 120756597.17008  94096068.98209  22979215.76409  22979213.28409
  22125586.97209 116270737.34309  90600556.03409  22125585.25109  22125585.17009
  20671323.06809 108628550.81309  84645620.09009  20671319.73509  20671321.31309
  24301713.08006 127706365.54406  99511447.62706  24301711.06006  24301711.78506
  23713003.33706 124612673.17506                                                
  20381561.64909 107105841.73309  83459098.20109  20381560.19509  20381560.60109
  23042334.28307 121088277.45707  94354485.29407  23042333.72407  23042332.69107
  23516654.94908 123580843.05808  96296756.46808  23516654.84908  23516653.95608
 17  1 13  0 26 30.0000000  0 10G06G12G24G28G19G02G30G17G13G15
  21871075.39709 114933299.25509  89558416.16209  21871077.71609  21871074.78909
  25014419.72006 131451674.35606                                                
  22961948.04108 120665862.62908  94025366.76909  22961949.95009  22961946.82609
  22138488.75709 116338538.02709  90653387.70909  22138488.20709  22138487.87009
  20672864.81309 108636653.52809  84651933.90109  20672861.51409  20672863.34409
  24279087.33907 127587471.35807  99418802.89506  24279086.50706  24279087.08606
  23732367.72806 124714434.61906                                                
  20390037.74309 107150384.45009  83493806.81209  20390036.41309  20390036.94309
  23057201.83807 121166404.88407  94415363.69607  23057200.85307  23057200.14807
  23524170.62108 123620340.78508  96327533.90508  23524171.18608  23524170.44808
 17  1 13  0 27  0.0000000  0  8G06G24G28G19G02G17G13G15
  21855111.23109 114849407.82709  89493046.25509  21855113.44309  21855110.45309
  22944729.99608 120575383.48508  93954863.56609  22944731.96409  22944729.36609
  22151421.29309 116406496.47309  90706342.31509  22151420.23209  22151419.68109
  20674480.71309 108645144.74109  84658550.43109  20674477.12209  20674478.86909
  24256458.36007 127468550.14907  99326137.12906  24256457.04606  24256456.48106
  20398589.94609 107195326.45409  83528826.54809  20398588.84009  20398589.16209
  23072111.45707 121244758.10907  94476418.19707  23072110.98607  23072110.27107
  23531758.77608 123660216.25908  96358605.72808  23531758.74208  23531758.21408
 17  1 13  0 27 30.0000000  0  8G06G24G28G19G02G17G13G15
  21839211.79209 114765856.46509  89427941.29209  21839214.17909  21839211.31409
  22927561.77108 120485162.58208  93884561.60109  22927563.70809  22927560.76209
  22164383.32509 116474612.70509  90759419.88709  22164382.21709  22164381.94509
  20676170.30609 108654023.67809  84665469.09509  20676166.92009  20676168.51709
  24233823.47907 127349605.00307  99233452.73306  24233821.91406  24233821.65706
  20407217.78809 107240665.92409  83564155.99409  20407216.50409  20407216.85309
  23087064.59507 121323334.21907  94537646.27706  23087064.46906  23087063.18906
  23539418.63208 123700467.66008  96389970.46108  23539418.19808  23539417.45808
 17  1 13  0 28  0.0000000  0  8G06G24G28G19G02G17G13G15
  21823377.72309 114682647.90609  89363103.47009  21823380.61209  21823377.34609
  22910443.01108 120395202.56408  93814462.92009  22910444.64709  22910441.85109
  22177375.06708 116542886.32408  90812620.06309  22177373.96409  22177373.84809
  20677933.42209 108663288.76509  84672688.63809  20677930.11809  20677931.65309
  24211185.42307 127230638.67707  99140751.78906  24211182.90406  24211183.44506
  20415920.91109 107286400.47009  83599793.28509  20415919.68509  20415920.14009
  23102058.33008 121402129.97108  94599045.52106  23102058.26006  23102056.80406
  23547149.50208 123741092.08608  96421625.80808  23547149.30808  23547148.43908
 17  1 13  0 28 30.0000000  0  8G06G24G28G19G02G17G13G15
  21807609.24709 114599784.63309  89298534.68509  21807612.01409  21807608.71709
  22893373.94308 120305505.79808  93744569.38109  22893376.14309  22893373.08409
  22190397.41608 116611316.92108  90865942.56609  22190395.89709  22190395.69909
  20679769.67809 108672938.39809  84680207.83609  20679766.19109  20679767.95009
  24188543.19406 127111653.28706  99048035.99405  24188538.98805  24188541.37005
  20424698.60409 107332527.58009  83635736.48009  20424697.33309  20424697.70409
  23117094.52207 121481142.17307  94660613.49006  23117093.88706  23117092.36106
  23554949.79408 123782086.91908  96453569.79508  23554950.57108  23554949.34608
 17  1 13  0 29  0.0000000  0  8G06G24G28G19G02G17G13G15
  21791907.43109 114517269.90609  89234237.53409  21791910.35009  21791907.51509
  22876356.62508 120216075.02808  93674883.08209  22876358.19509  22876355.40309
  22203449.30108 116679905.01508  90919387.79009  22203448.22109  22203447.68209
  20681679.01909 108682971.52609  84688025.85609  20681675.46609  20681677.15609
  24165897.76907 126992652.04807  98955307.77605  24165894.24605  24165895.70805
  20433550.65109 107379045.64209  83671984.30909  20433549.36609  20433549.65509
  23132171.05507 121560367.85007  94722347.73907  23132170.67007  23132168.76007
  23562820.63908 123823450.13708  96485800.85408  23562821.54708  23562820.45208
 17  1 13  0 29 30.0000000  0  8G06G24G28G19G02G17G13G15
  21776272.29109 114435106.57509  89170214.17309  21776274.67809  21776271.68909
  22859387.94108 120126912.73308  93605406.00909  22859391.07909  22859387.68909
  22216530.90308 116748650.10808  90972955.40809  22216530.21009  22216529.29409
  20683660.97909 108693386.74709  84696141.61509  20683657.39609  20683659.13609
  24143249.42707 126873637.42507  98862569.15005  24143246.45705  24143248.47605
  20442476.56509 107425952.19009  83708534.85309  20442475.45109  20442475.90409
  23147286.61507 121639804.07607  94784246.06006  23147286.03706  23147286.21406
  23570761.97408 123865179.39008  96518317.10608  23570762.59708  23570761.04808
 17  1 13  0 30  0.0000000  0  8G06G24G28G19G02G17G13G15
  21760704.60109 114353297.18909  89106466.63209  21760707.25809  21760703.78809
  22842473.11808 120038021.45608  93536140.11109  22842475.50909  22842472.59509
  22229642.76809 116817551.69409  91026644.91409  22229641.24609  22229641.29309
  20685715.11909 108704182.48709  84704553.87909  20685711.89309  20685713.38909
  24120600.50107 126754611.87507  98769822.06106  24120596.44806  24120598.55106
  20451476.07409 107473244.41509  83745385.93609  20451474.88709  20451475.32509
  23162441.32707 121719447.36807  94846305.70805  23162442.20505  23162441.95505
  23578772.28808 123907271.61008  96551116.24008  23578772.06508  23578771.04108
 17  1 13  0 30 30.0000000  0  9G06G12G24G28G19G02G17G13G15
  21745204.71809 114271845.11909  89042997.49709  21745207.09309  21745204.34509
  24903135.85506 130866868.58006                                                
  22825610.25908 119949404.44008  93467087.91609  22825611.97609  22825609.34709
  22242783.45308 116886610.14508  91080456.67109  22242782.38209  22242782.68509
  20687841.93409 108715357.96209  84713262.03709  20687838.59709  20687840.14909
  24097948.97307 126635578.63507  98677069.06406  24097945.53706  24097947.07606
  20460548.67409 107520921.02509  83782536.52109  20460547.12209  20460547.86709
  23177635.72807 121799294.81907  94908524.44706  23177636.82206  23177636.52206
  23586850.98308 123949725.07108  96584196.81208  23586850.84008  23586850.10508
 17  1 13  0 31  0.0000000  0  9G06G12G24G28G19G02G17G13G15
  21729772.96709 114190753.02009  88979808.88309  21729775.75309  21729772.31109
  24889187.43806 130793566.32606                                                
  22808799.53208 119861063.79508  93398251.06409  22808801.79609  22808798.91409
  22255955.32108 116955825.26908  91134390.48509  22255953.51509  22255953.62509
  20690040.48709 108726911.57409  84722264.84709  20690037.02309  20690038.66209
  24075296.18007 126516540.26407  98584311.91907  24075294.04807  24075295.22207
  20469694.06609 107568979.32909  83819984.54409  20469692.49109  20469693.02709
  23192869.27707 121879343.67807  94970900.13406  23192869.11906  23192869.45806
  23594997.41608 123992537.06808  96617556.79808  23594997.37608  23594997.01908
 17  1 13  0 31 30.0000000  0  9G06G12G24G28G19G02G17G13G15
  21714411.07909 114110023.75509  88916902.97909  21714413.91309  21714410.77209
  24875229.65106 130720218.74806                                                
  22792041.88608 119773002.33708  93329631.79409  22792043.94109  22792041.53609
  22269155.66709 117025196.95309  91188446.31509  22269154.73609  22269154.79409
  20692310.73109 108738841.65009  84731561.00109  20692307.22909  20692308.78509
  24052642.67407 126397499.50407  98491552.90707  24052641.42807  24052642.29607
  20478911.36809 107617417.29409  83857728.40909  20478910.04509  20478910.47009
  23208140.10007 121959590.64407  95033430.21006  23208139.49106  23208139.61106
  23603212.28008 124035705.07508  96651194.18708  23603212.42608  23603211.41508
 17  1 13  0 32  0.0000000  0  8G06G24G28G19G02G17G13G15
  21699118.09809 114029660.10709  88854281.98809  21699120.80409  21699117.61809
  22775337.76808 119685223.01308  93261232.35909  22775339.84809  22775337.61609
  22282387.26609 117094725.05309  91242624.03309  22282386.00009  22282385.67809
  20694652.30009 108751146.93409  84741149.53409  20694648.86609  20694650.40809
  24029991.64707 126278459.37907  98398794.40007  24029989.26707  24029989.35907
  20488200.42709 107666232.60509  83895766.30209  20488199.33909  20488199.82009
  23223447.47608 122040032.49008  95096112.16606  23223446.79206  23223447.44606
  23611494.24208 124079226.82108  96685107.15008  23611494.54808  23611493.98608
 17  1 13  0 32 30.0000000  0  8G06G24G28G19G02G17G13G15
  21683895.93609 113949664.71209  88791947.93109  21683898.28309  21683895.44409
  22758688.46808 119597727.71208  93193054.24909  22758689.75609  22758687.19009
  22295647.14108 117164409.06608  91296923.21609  22295646.69509  22295646.09109
  20697065.04409 108763826.16209  84751029.45609  20697061.78409  20697063.42009
  24007338.55807 126159422.22207  98306038.25907  24007337.13607  24007336.96207
  20497561.19609 107715422.81009  83934096.32609  20497559.53009  20497560.35809
  23238792.20908 122120666.08708  95158943.46507  23238791.05307  23238791.15707
  23619842.34008 124123099.17508  96719293.34808  23619843.22708  23619842.04208
 17  1 13  0 33  0.0000000  0  9G06G12G24G28G19G02G17G13G15
  21668743.79509 113870041.01609  88729903.51909  21668746.45309  21668743.25209
  24833304.47106 130499904.99616                                                
  22742092.70808 119510519.89308  93125100.12009  22742095.27109  22742091.90009
  22308937.83709 117234249.64309  91351344.42809  22308936.99009  22308936.30409
  20699548.71109 108776878.29609  84761199.94909  20699545.36409  20699547.05309
  23984688.46708 126040391.38608  98213287.02807  23984685.86007  23984685.96507
  20506992.82009 107764986.50109  83972717.37909  20506991.58909  20506991.88209
  23254172.27408 122201489.12508  95221922.41107  23254171.54207  23254171.30907
  23628257.77308 124167320.73308  96753751.65008  23628258.09208  23628256.83808
 17  1 13  0 33 30.0000000  0  9G06G12G24G28G19G02G17G13G15
  21653662.89609 113790791.07309  88668150.33509  21653665.25309  21653662.26309
  24819312.62706 130426376.12906                                                
  22725553.31608 119423601.50408  93057371.53809  22725554.92109  22725552.44509
  22322257.82409 117304245.64109  91405886.73009  22322255.99809  22322256.57809
  20702103.14309 108790301.16109  84771659.33109  20702099.61909  20702101.27409
  23962038.47607 125921368.90707  98120542.29207  23962036.53907  23962036.84507
  20516494.93509 107814920.44409  84011626.94409  20516493.56409  20516494.32109
  23269587.73308 122282497.21708  95285045.54307  23269587.86807  23269586.57007
  23636738.97608 124211888.06008  96788479.38808  23636739.07308  23636738.02108
 17  1 13  0 34  0.0000000  0  9G06G12G24G28G19G02G17G13G15
  21638653.98309 113711918.09509  88606690.89809  21638656.43409  21638653.48809
  24805314.62206 130352801.93306                                                
  22709068.59209 119336975.70609  92989870.94909  22709070.96909  22709068.32209
  22335606.67208 117374397.54608  91460550.53909  22335605.94809  22335605.56309
  20704727.72109 108804093.95209  84782406.96709  20704724.55309  20704726.01809
  23939391.84008 125802357.94708  98027806.57407  23939389.07707  23939389.88607
  20526067.11909 107865222.89409  84050823.64409  20526065.85509  20526066.28809
  23285037.75007 122363688.04907  95348311.10906  23285036.44806  23285035.87906
  23645285.02108 124256798.72708  96823474.70608  23645285.28908  23645283.97008
 17  1 13  0 34 30.0000000  0  8G06G24G28G19G02G17G13G15
  21623717.15409 113633424.78309  88545527.30709  21623719.47709  21623716.79309
  22692640.33708 119250644.74908  92922600.09909  22692642.08409  22692639.88509
  22348986.59009 117444705.23509  91515335.70309  22348984.96509  22348984.85809
  20707422.56309 108818254.88509  84793441.45809  20707419.28509  20707420.66509
  23916746.86307 125683361.26507  97935081.91407  23916745.54007  23916745.42507
  20535709.23509 107915891.69509  84090305.82309  20535707.79709  20535708.23909
  23300521.12307 122445058.69807  95411716.75806  23300521.36906  23300519.50906
  23653896.09008 124302050.41108  96858735.71809  23653896.77309  23653895.81009
 17  1 13  0 35  0.0000000  0  9G06G12G24G28G19G02G17G13G15
  21608853.20309 113555313.93409  88484661.73409  21608855.69509  21608853.12109
  24777284.13806 130205517.07006                                                
  22676268.68808 119164611.45308  92855561.19009  22676270.92509  22676268.05109
  22362394.80509 117515168.45609  91570242.08309  22362393.90009  22362393.38909
  20710186.98409 108832782.59709  84804761.76209  20710183.51809  20710185.23709
  23894105.74307 125564381.67707  97842370.61106  23894103.45006  23894104.29906
  20545420.34609 107966924.38209  84130071.56309  20545418.97309  20545419.74809
  23316039.65708 122526605.50708  95475259.70006  23316039.60006  23316038.37506
  23662571.59508 124347640.49408  96894260.42608  23662571.59108  23662570.76108
 17  1 13  0 35 30.0000000  0  9G06G12G24G28G19G02G17G13G15
  21594062.57209 113477588.09909  88424096.18609  21594064.47209  21594062.03309
  24763257.82906 130131806.22606                                                
  22659954.29208 119078877.84208  92788755.82009  22659955.90509  22659953.26709
  22375832.84608 117585786.91308  91625269.41609  22375832.31709  22375831.79909
  20713021.06009 108847675.60109  84816366.70509  20713017.69009  20713019.09809
  23871468.36107 125445421.57607  97749674.51306  23871465.63906  23871466.78506
  20555200.25409 108018318.66409  84170119.04709  20555199.09609  20555199.50009
  23331590.52907 122608325.37907  95538937.45606  23331589.47806  23331588.95806
  23671311.11508 124393566.26208  96930046.73808  23671310.77808  23671309.90808
 17  1 13  0 36  0.0000000  0  9G06G12G24G28G19G02G17G13G15
  21579345.51809 113400250.50209  88363833.14809  21579347.93009  21579345.15509
  24749222.50407 130058050.05007                                                
  22643697.40508 118993447.37808  92722186.64709  22643699.01209  22643696.24609
  22389300.89708 117656560.90808  91680417.95009  22389299.88609  22389299.03209
  20715924.55009 108862933.20709  84828255.74809  20715921.08009  20715922.68409
  23848835.41508 125326484.33808  97656996.17607  23848833.63207  23848834.41707
  20565048.77409 108070072.67309  84210446.83609  20565047.62309  20565047.99309
  23347173.32307 122690215.77507  95602748.10806  23347171.83706  23347172.65406
  23680113.21008 124439825.54208  96966092.91608  23680113.78408  23680113.43108
 17  1 13  0 36 30.0000000  0  9G06G12G24G28G19G02G17G13G15
  21564702.98109 113323303.52309  88303874.50009  21564705.35009  21564702.11909
  24735178.87906 129984248.11506                                                
  22627498.19008 118908322.62508  92655855.70509  22627500.35709  22627497.84509
  22402798.29008 117727489.97808  91735687.34009  22402796.93409  22402797.30709
  20718896.61209 108878552.69909  84840426.79009  20718893.29809  20718894.87709
  23826207.53508 125207572.51608  97564337.68807  23826206.03307  23826206.80507
  20574965.30109 108122183.85409  84251052.94509  20574964.01109  20574964.42509
  23362789.25808 122772273.18708  95666688.83707  23362788.85707  23362788.41307
  23688979.66308 124486415.40508  97002396.63708  23688980.27908  23688978.61308
 17  1 13  0 37  0.0000000  0  9G06G12G24G28G19G02G17G13G15
  21550135.18009 113246749.92609  88244222.37409  21550137.54709  21550135.06709
  24721125.36107 129910400.46207 101228876.50115  24721123.88005  24721127.04705
  22611358.46308 118823506.08608  92589764.90009  22611360.42909  22611357.61509
  22416325.35109 117798573.97509  91791077.42109  22416324.03009  22416323.93609
  20721937.74409 108894533.13009  84852879.06409  20721934.24109  20721935.91009
  23803584.49708 125088688.80908  97471701.01407  23803582.25607  23803583.83807
  20584949.02209 108174650.04409  84291935.69709  20584948.13209  20584948.34809
  23378435.05208 122854494.56408  95730757.43007  23378434.68207  23378434.64507
  23697908.19708 124533333.29208  97038955.98008  23697908.84508  23697907.56708
 17  1 13  0 37 30.0000000  0  9G06G12G24G28G19G02G17G13G15
  21535643.04709 113170592.43709  88184878.90709  21535645.09409  21535642.29609
  24707064.41906 129836507.05006 101171297.22305  24707062.71605  24707063.52305
  22595277.48108 118739000.00208  92523916.02109  22595279.93709  22595276.82809
  22429880.99508 117869812.83008  91846588.22308  22429879.96408  22429880.14708
  20725047.12809 108910872.98409  84865611.42709  20725043.67309  20725045.49609
  23780967.33908 124969836.20008  97379088.64607  23780965.38907  23780966.56807
  20595000.38609 108227468.87109  84333093.21009  20594998.94009  20594999.18309
  23394112.23307 122936876.93607  95794951.43107  23394112.04707  23394111.70707
  23706898.51608 124580576.72008  97075769.00307  23706898.19107  23706897.53107
 17  1 13  0 38  0.0000000  0  9G06G12G24G28G19G02G17G13G15
  21521226.33809 113094833.89409  88125846.29409  21521229.08209  21521226.15809
  24692993.95707 129762568.06507 101113682.54806  24692994.98706  24692993.09506
  22579256.26208 118654807.50108  92458311.48809  22579257.19709  22579255.41309
  22443467.02608 117941206.56208  91902219.64608  22443465.81808  22443465.86608
  20728224.56009 108927571.06209  84878622.91909  20728221.28209  20728222.92109
  23758357.09008 124851017.37008  97286502.59007  23758354.94207  23758355.29707
  20605118.22909 108280638.21609  84374523.86609  20605116.61609  20605117.37909
  23409818.63107 123019417.12207  95859268.43206  23409819.40106  23409818.06206
  23715949.45507 124628142.86607  97112833.48007  23715949.78407  23715948.55807
 17  1 13  0 38 30.0000000  0  9G06G12G24G28G19G02G17G13G15
  21506886.76009 113019477.25309  88067126.86509  21506889.05509  21506886.10809
  24678914.52107 129688583.65807 101056032.40606  24678916.43606  24678914.53506
  22563294.83708 118570931.12008  92392953.29809  22563296.53209  22563294.59609
  22457082.60608 118012755.23108  91957971.80108  22457081.57008  22457081.32608
  20731470.17109 108944626.23809  84891912.66309  20731466.77209  20731468.27009
  23735753.67908 124732235.58408  97193945.46107  23735751.67007  23735752.02307
  20615302.30609 108334156.09009  84416226.10509  20615301.01009  20615301.31509
  23425555.03507 123102112.30707  95923706.24906  23425556.08806  23425554.30706
  23725062.70007 124676029.63007  97150147.81008  23725062.74108  23725061.85208
 17  1 13  0 39  0.0000000  0  9G06G12G24G28G19G02G17G13G15
  21492623.41109 112944524.73009  88008722.31709  21492625.73709  21492623.08309
  24664828.02107 129614553.80207 100998346.84206  24664827.72006  24664827.06306
  22547394.46209 118487373.29109  92327843.33809  22547396.55909  22547394.30309
  22470727.04508 118084458.23008  92013844.22608  22470726.06608  22470725.72308
  20734783.08509 108962036.18609  84905478.86309  20734779.81609  20734781.26009
  23713157.95508 124613493.34208  97101419.08907  23713156.20607  23713156.21807
  20625552.17809 108388019.81709  84458197.82509  20625550.86609  20625551.39009
  23441320.02207 123184959.12107  95988262.10806  23441320.56206  23441318.93806
  23734235.90906 124724234.07706  97187709.57607  23734236.18707  23734233.86507
 17  1 13  0 39 30.0000000  0 10G06G12G24G28G19G02G30G17G13G15
  21478438.01209 112869979.04009  87950634.78509  21478440.66109  21478437.69409
  24650730.69507 129540478.31707 100940625.69705  24650730.96205  24650731.03505
  22531555.09709 118404136.83809  92262983.77509  22531557.00509  22531554.47909
  22484401.05208 118156315.54008  92069836.88409  22484400.92309  22484399.60409
  20738163.31809 108979799.69709  84919320.56409  20738159.95609  20738161.62209
  23690569.96908 124494793.18208  97008925.57207  23690567.93007  23690568.68207
  24246658.11906                                                                
  20635867.59309 108442227.20409  84500437.33609  20635866.25909  20635866.71209
  23457114.95707 123267954.36107  96052933.63706  23457113.92206  23457111.95406
  23743467.39107 124772753.37107  97225516.85507  23743468.78207  23743466.72607
 17  1 13  0 40  0.0000000  0 10G06G12G24G28G19G02G30G17G13G15
  21464330.23509 112795842.72009  87892866.25509  21464332.62109  21464329.81009
  24636627.23006 129466357.12006                                                
  22515777.29009 118321223.99409  92198376.39809  22515778.71609  22515776.52909
  22498104.41508 118228326.85808  92125949.57608  22498103.50808  22498103.00008
  20741610.66709 108997914.98209  84933436.36509  20741607.25909  20741609.01509
  23667990.58308 124376137.99108  96916467.09607  23667988.24207  23667989.15807
  24266806.42606 127522935.06616                                                
  20646247.87009 108496776.00809  84542942.89709  20646246.65909  20646246.90109
  23472935.44007 123351094.96007  96117718.43406  23472934.58806  23472933.25406
  23752760.50407 124821584.39007  97263566.94507  23752760.90107  23752759.18907
 17  1 13  0 40 30.0000000  0  9G06G24G28G19G02G30G17G13G15
  21450301.06409 112722118.83009  87835419.07509  21450303.57909  21450301.14209
  22500061.29308 118238638.04308  92134023.76109  22500063.80609  22500060.92509
  22511837.50208 118300492.47508  92182182.43808  22511835.85208  22511835.85108
  20745124.64609 109016381.01709  84947825.49009  20745121.09309  20745122.75509
  23645419.88007 124257530.79507  96824045.86307  23645418.00507  23645418.42507
  24286980.10607 127628948.13207                                                
  20656692.55009 108551663.89909  84585712.67209  20656691.29309  20656691.93309
  23488783.65707 123434377.95207  96182614.27205  23488783.03405  23488782.43105
  23762110.96207 124870725.19507  97301858.42307  23762112.01707  23762110.57507
 17  1 13  0 41  0.0000000  0  9G06G12G24G28G19G02G17G13G15
  21436350.90809 112648810.19209  87778295.48409  21436353.51909  21436350.68009
  24608391.08607 129317978.39007 100767242.21716  24608392.30806  24608388.88606
  22484408.58508 118156381.81308  92069928.00609  22484410.73409  22484408.49109
  22525599.51009 118372812.30309  92238535.53809  22525597.93109  22525598.00809
  20748705.05109 109035196.33209  84962486.76709  20748701.46209  20748703.13609
  23622859.95908 124138975.06208  96731664.80607  23622856.85607  23622858.09807
  20667201.54609 108606888.99509  84628745.20609  20667200.49209  20667200.43209
  23504658.45007 123517800.43107  96247618.64406  23504658.38706  23504657.10406
  23771521.76408 124920173.36308  97340389.40808  23771521.99108  23771520.73908
 17  1 13  0 41 30.0000000  0  9G06G12G24G28G19G02G17G13G15
  21422480.32109 112575919.15109  87721497.29209  21422482.57309  21422479.63909
  24594260.20407 129243721.33907 100709379.59806  24594260.81206  24594259.33006
  22468818.75209 118074457.34409  92006090.78309  22468820.78609  22468818.51809
  22539390.77708 118445285.98508  92295008.48309  22539390.00709  22539389.14109
  20752351.75909 109054359.38309  84977419.01409  20752348.12309  20752350.07709
  23600309.14707 124020472.97407  96639325.49207  23600306.92507  23600307.92507
  20677774.44109 108662448.90309  84672038.62409  20677773.29609  20677773.65109
  23520558.66307 123601359.29407  96312729.43905  23520558.58105  23520558.77905
  23780988.81508 124969925.72008  97379157.36608  23780989.60608  23780989.22808
 17  1 13  0 42  0.0000000  0  9G06G12G24G28G19G02G17G13G15
  21408689.59009 112503448.01209  87665026.28609  21408691.34109  21408688.80909
  24580120.65007 129169418.50407 100651481.32906  24580121.05706  24580121.44906
  22453293.11309 117992866.97709  91942513.90909  22453294.46409  22453291.73909
  22553211.10009 118517913.20709  92351601.07409  22553210.68409  22553209.51909
  20756064.08409 109073868.03509  84992620.55809  20756060.56109  20756062.15309
  23577768.97507 123902027.30407  96547030.24606  23577767.41606  23577767.38106
  20688410.03709 108718340.99909  84715590.90509  20688408.86809  20688409.25409
  23536486.04307 123685050.88007  96377943.57506  23536483.98006  23536482.85706
  23790513.63407 125019979.49407  97418160.31807  23790514.93707  23790513.48007
 17  1 13  0 42 30.0000000  0  9G06G12G24G28G19G02G17G13G15
  21394978.90409 112431399.95609  87608884.94909  21394981.33909  21394978.48709
  24565972.29206 129095070.58906 100593547.97105  24565972.71905  24565972.48505
  22437831.14509 117911613.68609  91879199.67509  22437832.93909  22437830.08709
  22567061.04409 118590694.36709  92408313.65109  22567060.13909  22567059.71709
  20759842.16809 109093721.67209  85008090.92609  20759838.51609  20759840.37409
  23555240.38106 123783641.40606  96454781.62106  23555239.52506  23555239.59706
  20699108.96509 108774563.57909  84759400.68909  20699107.82109  20699108.10409
  23552436.61707 123768872.81607  96443259.31106  23552435.35706  23552434.50106
  23800094.59407 125070332.67707  97457396.53307  23800096.91907  23800094.85507
 17  1 13  0 43  0.0000000  0  9G06G12G24G28G19G02G17G13G15
  21381349.51409 112359777.24409  87553075.05609  21381352.40109  21381349.23909
  24551816.56806 129020677.37406 100535579.26705  24551815.25905  24551815.12605
  22422433.56609 117830700.11809  91816150.15809  22422435.32909  22422432.79909
  22580939.91908 118663628.96908  92465145.76009  22580939.00909  22580938.74809
  20763685.28309 109113918.43509  85023828.66609  20763681.87809  20763683.67309
  23532725.21607 123665317.86507  96362581.56906  23532723.24006  23532723.89406
  20709870.33109 108831114.26609  84803466.15809  20709869.03809  20709869.47609
  23568410.86307 123852821.68407  96508673.98705  23568409.05605  23568410.00305
  23809734.95508 125120981.99208  97496863.45307  23809734.76307  23809733.37807
 17  1 13  0 43 30.0000000  0  9G06G12G24G28G19G02G17G13G15
  21367801.78109 112288582.61609  87497598.73309  21367804.10509  21367801.46709
  24537651.56506 128946239.10606 100477575.49505  24537651.09705  24537649.92205
  22407100.81309 117750129.06809  91753367.56009  22407103.28509  22407101.15409
  22594848.51209 118736717.08709  92522097.51609  22594847.15209  22594846.95209
  20767593.75109 109134456.83409  85039832.61209  20767590.24409  20767591.79509
  23510220.13106 123547059.95706  96270432.62806  23510220.03606  23510220.31906
  20720693.46309 108887990.67509  84847785.42009  20720692.14209  20720692.74209
  23584409.05707 123936894.26007  96574185.03806  23584408.27906  23584408.71406
  23819428.81008 125171924.58308  97536558.95708  23819428.32008  23819427.70408
 17  1 13  0 44  0.0000000  0  9G06G12G24G28G19G02G17G13G15
  21354335.65709 112217818.34109  87442457.75909  21354338.74709  21354335.09709
  24523477.44907 128871755.58707 100419536.36106  24523477.73706  24523476.71806
  22391834.53809 117669902.70809  91690853.53009  22391836.29609  22391834.17809
  22608785.96609 118809958.54109  92579168.71909  22608784.74309  22608784.25409
  20771566.69509 109155334.93909  85056101.26109  20771563.20209  20771564.73009
  23487729.25806 123428869.64706  96178336.38706  23487729.16406  23487728.52106
  20731578.11609 108945190.39809  84892356.62209  20731577.11709  20731577.24009
  23600431.47408 124021087.43508  96639790.10006  23600430.54806  23600430.28406
  23829178.05508 125223157.68608  97576480.78508  23829178.45608  23829177.13308
 17  1 13  0 44 30.0000000  0  9G06G12G24G28G19G02G17G13G15
  21340952.18409 112147487.14209  87387654.24709  21340954.52709  21340951.84109
  24509294.74807 128797227.06507 100361462.25006  24509295.35606  24509294.66606
  22376633.93509 117590024.05609  91628610.45209  22376636.41009  22376633.69609
  22622752.19209 118883352.89709  92636359.10109  22622751.38709  22622751.20009
  20775603.98609 109176551.31909  85072633.50209  20775600.62809  20775602.35809
  23465254.17206 123310750.50306  96086295.60506  23465251.89606  23465250.42806
  20742523.85909 109002711.19209  84937178.00809  20742523.08309  20742523.16709
  23616474.46907 124105398.37607  96705486.93406  23616475.83206  23616474.76006
  23838982.16908 125274679.03708  97616627.19208  23838982.95308  23838981.16608
 17  1 13  0 45  0.0000000  0  9G06G12G24G28G19G02G17G13G15
  21327651.64709 112077591.72009  87333190.28909  21327654.04909  21327651.06909
  24495103.75407 128722653.64707 100303353.16707  24495104.01807  24495103.39107
  22361500.73808 117510495.58508  91566640.23609  22361502.60809  22361499.87609
  22636747.96609 118956900.26409  92693668.70809  22636747.29109  22636746.41909
  20779705.42209 109198104.56809  85089428.22709  20779702.14509  20779703.67309
  23442789.29407 123192705.40107  95994312.50805  23442788.78605  23442786.88705
  20753530.40409 109060551.26309  84982248.18209  20753529.49009  20753530.05609
  23632539.21106 124189824.22606  96771273.19006  23632540.75506  23632539.95306
  23848840.33808 125326485.88108  97656996.11307  23848840.86807  23848839.76507
 17  1 13  0 45 30.0000000  0  8G06G12G24G28G19G02G17G15
  21314434.36909 112008134.43109  87279067.73909  21314436.66509  21314433.89609
  24480904.94207 128648035.46907 100245209.16907  24480904.78607  24480904.45907
  22346433.81509 117431319.51409  91504944.61709  22346435.70609  22346433.36109
  22650772.77809 119030600.60209  92751097.51309  22650771.99609  22650771.47909
  20783870.64609 109219993.19409  85106484.30309  20783867.55809  20783869.21409
  23420342.03106 123074737.08706  95902388.99905  23420340.48505  23420338.96505
  20764597.48609 109118707.89509  85027565.03709  20764596.07809  20764596.57809
  23858753.08608 125378575.40508  97697585.31107  23858752.78107  23858751.37907
 17  1 13  0 46  0.0000000  0  9G06G12G24G28G19G02G17G13G15
  21301300.70609 111939117.61609  87225288.41809  21301303.33509  21301300.15709
  24466696.75807 128573372.43607 100187030.20707  24466697.45107  24466696.32607
  22331434.92809 117352498.59009  91443525.73109  22331436.42709  22331434.00509
  22664826.15008 119104453.44908  92808645.15809  22664825.16609  22664824.82109
  20788099.42309 109242215.25009  85123800.17409  20788095.94909  20788097.47309
  23397906.42006 122956848.23306  95810527.84204  23397907.24004  23397906.03104
  20775724.30109 109177178.84709  85073126.81009  20775722.86109  20775723.61009
  23664734.97906 124359007.21206  96903103.91706  23664735.52306  23664733.97906
  23868718.38808 125430944.44608  97738392.34407  23868718.58207  23868717.45107
 17  1 13  0 46 30.0000000  0  9G06G12G24G28G19G02G17G13G15
  21288251.67909 111870544.01509  87171854.47109  21288253.89509  21288251.15509
  24452480.20808 128498664.81808 100128816.52807  24452480.62107  24452479.55707
  22316503.85909 117274035.69509  91382385.83409  22316505.48109  22316503.08709
  22678909.48208 119178459.02008  92866311.78009  22678908.48009  22678907.76809
  20792391.56809 109264769.91609  85141375.23909  20792388.00309  20792389.73409
  23375490.43407 122839041.97707  95718730.48706  23375488.49406  23375489.18706
  20786910.27109 109235962.27809  85118932.06409  20786909.32109  20786909.34309
  23680861.69406 124443758.50906  96969143.90505  23680864.09705  23680862.22205
  23878735.90208 125483590.43408  97779415.15707  23878736.86407  23878736.50007
 17  1 13  0 47  0.0000000  0  9G06G12G24G28G19G02G17G13G15
  21275287.59609 111802416.46709  87118768.07909  21275289.57709  21275287.26009
  24438256.03208 128423913.00608 100070568.45208  24438255.87408  24438255.49408
  22301641.60309 117195933.85109  91321527.27609  22301643.33609  22301640.64909
  22693020.90808 119252617.40608  92924097.47909  22693020.17509  22693019.79009
  20796746.48809 109287655.35209  85159208.05109  20796743.04109  20796744.58309
  23353088.52507 122721321.64807  95627000.49006  23353086.65906  23353087.22306
  20798155.63709 109295055.86609  85164978.99709  20798154.29609  20798154.54809
  23697008.27706 124528612.18306  97035263.70505  23697010.15605  23697009.52305
  23888807.60308 125536511.20608  97820652.07807  23888807.30407  23888806.67507
 17  1 13  0 47 30.0000000  0  9G06G12G24G28G19G02G17G13G15
  21262408.54909 111734736.90109  87066030.77609  21262410.75309  21262407.81409
  24424022.64508 128349116.82008 100012285.74208  24424022.44808  24424022.18408
  22286848.21308 117118194.72708  91260951.35909  22286849.80409  22286847.52209
  22707161.62608 119326927.85508  92982001.70309  22707161.12309  22707160.53709
  20801163.98509 109310869.57609  85177297.06009  20801160.65709  20801162.08509
  23330704.46906 122603689.78806  95535339.41906  23330702.32406  23330703.19206
  20809458.93309 109354456.82709  85211265.45209  20809457.76409  20809458.36309
  23713175.75307 124613564.98807  97101460.59906  23713176.06406  23713175.66306
  23898928.81507 125589703.29607  97862100.44507  23898929.78207  23898928.47207
 17  1 13  0 48  0.0000000  0  9G06G12G24G28G19G02G17G13G15
  21249615.31009 111667507.84709  87013644.50609  21249617.39609  21249614.50809
  24409780.74608 128274276.40708  99953968.59208  24409780.93908  24409780.29008
  22272124.42209 117040821.53709  91200660.59609  22272126.35209  22272123.82009
  22721331.85108 119401390.75808  93040024.70109  22721331.16809  22721330.56409
  20805643.69609 109334411.33809  85195641.28909  20805640.35209  20805641.95909
  23308336.98607 122486149.14507  95443749.25607  23308335.00907  23308336.14507
  20820820.82309 109414163.17809  85257789.86809  20820819.67609  20820819.85709
  23729360.62107 124698614.05207  97167732.57106  23729360.45206  23729360.56306
  23909102.29707 125643164.16907  97903758.28307  23909102.60707  23909102.23007
 17  1 13  0 48 30.0000000  0  9G06G12G24G28G19G02G17G13G15
  21236907.95409 111600731.61509  86961611.10209  21236910.55009  21236907.57509
  24395530.98108 128199391.75308  99895616.96008  24395530.35308  24395530.03708
  22257471.00109 116963815.78809  91140656.14009  22257472.64509  22257469.94009
  22735530.08108 119476005.36608  93098165.92309  22735529.77909  22735529.11609
  20810185.67309 109358278.94409  85214239.42909  20810182.17009  20810183.97309
  23285987.28308 122368702.42408  95352232.41206  23285984.95406  23285986.75906
  20832240.14709 109474172.70609  85304550.52909  20832239.39409  20832239.53109
  23745562.14507 124783756.13307  97234076.95206  23745562.97006  23745562.27906
  23919326.74007 125696890.77907  97945623.15607  23919326.38907  23919325.24307
 17  1 13  0 49  0.0000000  0  9G06G12G24G28G19G02G17G13G15
  21224287.78109 111534410.95009  86909932.67709  21224290.28309  21224287.53309
  24381272.21108 128124463.07108  99837231.00508  24381271.82108  24381271.35508
  22242887.43409 116887181.07609  91080940.81309  22242889.35609  22242886.94109
  22749757.90808 119550771.64108  93156425.31309  22749757.51909  22749756.58309
  20814789.14309 109382470.63809  85233090.10109  20814785.61909  20814787.23109
  23263656.70307 122251353.06507  95260791.47606  23263654.19206  23263656.03906
  20843716.95109 109534483.15809  85351545.70109  20843715.65309  20843716.42109
  23761781.31808 124868988.45808  97300491.59206  23761782.08906  23761780.79406
  23929600.45907 125750880.72207  97987693.18307  23929600.90007  23929599.52707
 17  1 13  0 49 30.0000000  0  9G06G12G24G28G19G02G17G13G15
  21211754.36809 111468548.12509  86858611.02409  21211756.40409  21211753.82009
  24367005.48707 128049490.31807  99778810.73508  24367005.22608  24367004.76208
  22228375.62909 116810919.76409  91021516.42809  22228376.89909  22228374.93009
  22764014.22908 119625690.17908  93214803.36408  22764013.91508  22764013.10808
  20819454.10009 109406985.25309  85252192.39909  20819450.89909  20819452.33009
  23241344.60808 122134103.83908  95169428.38406  23241341.88306  23241343.51406
  20855250.66609 109595092.16509  85398773.49009  20855249.36509  20855249.86709
  23778017.68908 124954307.64508  97366974.07306  23778017.47106  23778016.04006
  23939923.17807 125805130.76607  98029965.91506  23939924.77506  23939923.04106
 17  1 13  0 50  0.0000000  0 10G30G06G12G24G28G19G02G17G13G15
  24674316.94406 129664418.69816                                                
  21199308.57009 111403145.47309  86807647.94409  21199310.83109  21199308.24909
  24352730.42608 127974473.99208  99720356.54408  24352730.32908  24352729.79308
  22213934.96509 116735034.14809  90962384.80709  22213936.54709  22213934.24409
  22778299.69408 119700760.20408  93273299.46108  22778298.73208  22778298.52308
  20824180.33209 109431820.69409  85271544.69609  20824176.91009  20824178.57009
  23219051.89507 122016957.63307  95078145.86006  23219049.49906  23219050.78206
  20866840.56609 109655997.88309  85446232.49409  20866839.60409  20866839.85909
  23794269.05108 125039710.91708  97433522.00806  23794268.40606  23794267.73306
  23950296.82507 125859638.42707  98072439.34906  23950297.42806  23950295.35906
 17  1 13  0 50 30.0000000  0 10G30G06G12G24G28G19G02G17G13G15
  24694888.72906 129772523.65106                                                
  21186951.04509 111338205.66909  86757045.52309  21186953.10909  21186950.23009
  24338446.52708 127899414.72008  99661868.88008  24338447.21108  24338445.70408
  22199566.62009 116659527.56209  90903548.52109  22199568.27309  22199566.04109
  22792613.54408 119775981.96408  93331913.78408  22792613.11708  22792613.20708
  20828966.99909 109456975.88109  85291146.13709  20828963.69009  20828965.36609
  23196779.70107 121899917.68307  94986945.88207  23196778.98707  23196779.12407
  20878486.44509 109717198.15809  85493921.02009  20878485.37209  20878485.87009
  23810536.70108 125125195.23108  97500133.09006  23810536.47306  23810535.24706
  23960717.64107 125914401.05407  98115111.48806  23960717.91606  23960716.25206
 17  1 13  0 51  0.0000000  0 10G30G06G12G24G28G19G02G17G13G15
  24715474.86706 129880711.97306                                                
  21174681.91909 111273730.90509  86706805.47509  21174683.88109  21174681.55409
  24324155.16208 127824312.26208  99603347.52008  24324156.24308  24324154.79208
  22185270.28209 116584401.73609  90845008.94209  22185272.50409  22185270.20309
  22806957.22608 119851355.15908  93390646.10108  22806956.91108  22806955.92408
  20833814.46209 109482448.79309  85310995.16109  20833810.92509  20833812.52709
  23174528.52507 121782986.60707  94895830.84507  23174528.08207  23174527.25107
  20890188.17409 109778690.51409  85541837.13409  20890186.79809  20890187.37609
  23826818.18507 125210757.54007  97566804.96406  23826818.75206  23826816.79306
  23971186.31308 125969415.65208  98157979.99707  23971186.26807  23971185.83507
 17  1 13  0 51 30.0000000  0  9G06G12G24G28G19G02G17G13G15
  21162501.62009 111209723.47809  86656929.57609  21162503.93909  21162500.80109
  24309855.53108 127749166.39308  99544792.30407  24309855.76907  24309855.17407
  22171047.61409 116509659.35409  90786768.13509  22171049.32209  22171047.08309
  22821328.72908 119926879.60408  93449496.27308  22821328.99108  22821327.90708
  20838721.91009 109508238.25209  85331090.84209  20838718.63909  20838720.31109
  23152298.34307 121666167.37207  94804802.91507  23152296.96607  23152297.63207
  20901944.82609 109840472.43809  85589978.90009  20901943.79209  20901944.18909
  23843114.44908 125296394.90508  97633535.30906  23843115.21506  23843112.89506
  23981702.60507 126024679.36407  98201042.55306  23981702.42006  23981702.05106
 17  1 13  0 52  0.0000000  0 10G30G06G12G24G28G19G02G17G13G15
  24756696.36906 130097330.62006 101374554.06415  24756701.77905  24756695.63005
  21150410.58109 111146185.63409  86607419.60709  21150412.86109  21150410.25109
  24295547.42807 127673977.85807  99486203.84507  24295547.26007  24295546.83707
  22156898.19009 116435303.17409  90728828.26009  22156899.43309  22156898.05509
  22835729.91508 120002555.13108  93508464.17308  22835729.05808  22835727.95708
  20843689.37809 109534342.69109  85351431.96309  20843686.07309  20843687.56209
  23130090.68108 121549462.88508  94713864.41807  23130088.82107  23130089.21707
  20913756.27909 109902541.99109  85638344.79209  20913755.15409  20913755.39509
  23859424.91908 125382103.86508  97700321.47306  23859424.62506  23859423.71606
  23992265.68007 126080189.28607  98244296.97106  23992266.81506  23992264.80306
 17  1 13  0 52 30.0000000  0  9G06G12G24G28G19G02G17G13G15
  21138409.79509 111083119.78209  86558277.41009  21138411.65909  21138409.42809
  24281231.45407 127598746.51607  99427582.09107  24281230.91807  24281230.04607
  22142822.62709 116361335.37709  90671191.03709  22142824.37209  22142821.63009
  22850158.98708 120078381.67808  93567549.78308  22850157.78108  22850157.45408
  20848716.33309 109560759.89909  85372016.81109  20848713.02309  20848714.86909
  23107905.85508 121432876.33308  94623017.78908  23107903.13508  23107904.11408
  20925622.16709 109964896.76809  85686932.91909  20925620.72609  20925621.27509
  23875747.98808 125467881.73108  97767161.35206  23875746.97406  23875747.41506
  24002874.91607 126135942.92907  98287741.39106  24002876.31406  24002874.97106
 17  1 13  0 53  0.0000000  0  9G06G12G24G28G19G02G17G13G15
  21126499.06909 111020528.28609  86509504.84009  21126501.12809  21126498.34909
  24266907.46807 127523472.63107  99368927.13507  24266907.09907  24266905.92807
  22128821.49109 116287759.25509  90613858.99109  22128823.11009  22128820.87409
  22864617.10708 120154359.04808  93626752.89508  22864616.04408  22864615.67008
  20853802.93009 109587488.68009  85392844.42809  20853799.58909  20853800.83309
  23085742.62408 121316410.51708  94532265.29308  23085740.03208  23085741.56108
  20937541.68709 110027534.83609  85735741.80409  20937540.64409  20937541.14309
  23892083.02407 125553725.58207  97834052.56305  23892082.25605  23892081.79405
  24013529.83506 126191937.27406  98331373.30106  24013530.95806  24013529.47206
 17  1 13  0 53 30.0000000  0  9G06G12G24G28G19G02G17G13G15
  21114678.92609 110958413.50209  86461103.74509  21114681.32409  21114677.95909
  24252575.19107 127448156.56907  99310239.32407  24252574.75807  24252574.06007
  22114895.09809 116214576.82309  90556833.74709  22114897.33909  22114894.27509
  22879103.35408 120230487.09708  93686073.42208  22879103.48408  22879102.13308
  20858948.22909 109614527.47809  85413913.62109  20858944.57209  20858946.42609
  23063603.08708 121200068.23808  94441609.03408  23063600.71808  23063602.33108
  20949514.88509 110090453.84909  85784769.59109  20949513.74209  20949513.63309
  23908431.10807 125639632.32507  97900992.86306  23908429.86106  23908429.03906
  24024230.99307 126248169.50607  98375190.59106  24024232.38306  24024229.77406
 17  1 13  0 54  0.0000000  0  9G06G12G24G28G19G02G17G13G15
  21102949.92409 110896777.43209  86413075.66009  21102952.35209  21102949.42909
  24238235.08207 127372798.26507  99251518.66507  24238234.21007  24238232.81507
  22101044.26309 116141790.18909  90500116.92009  22101045.78409  22101043.76409
  22893618.57208 120306765.52908  93745511.13408  22893618.27508  22893617.95408
  20864152.02509 109641874.40009  85435222.92309  20864148.62309  20864150.19809
  23041487.63008 121083852.71508  94351051.55408  23041485.87808  23041487.19808
  20961540.74509 110153651.32809  85834014.37709  20961539.42709  20961539.85609
  23924789.50607 125725598.53407  97967979.44306  23924788.21206  23924788.82706
  24034976.84207 126304636.44807  98419190.74907  24034978.09507  24034975.26007
 17  1 13  0 54 30.0000000  0  9G06G12G24G28G19G02G17G13G15
  21091312.44809 110835622.66109  86365422.61009  21091314.77009  21091312.14709
  24223887.22707 127297398.30907  99192765.49006  24223885.77606  24223885.06006
  22087269.47109 116069402.87609  90443711.23809  22087271.28409  22087268.95209
  22908163.36908 120383194.55308  93805066.16908  22908162.05108  22908161.89608
  20869414.51009 109669528.23409  85456771.36209  20869411.05109  20869412.54409
  23019397.89608 120967766.98008  94260595.19508  23019396.00108  23019396.34108
  20973619.78809 110217125.64609  85883474.87509  20973618.20709  20973619.00509
  23941159.46806 125811621.72606  98035010.46505  23941157.84105  23941158.05305
  24045766.47807 126361335.46407  98463371.73606  24045766.98406  24045765.32606
 17  1 13  0 55  0.0000000  0  9G06G12G24G28G19G02G17G13G15
  21079767.17309 110774951.10409  86318146.09509  21079769.22109  21079766.75809
  24209530.76307 127221956.72907  99133979.86806  24209529.53306  24209529.55706
  22073571.10709 115997416.45409  90387617.93609  22073572.37109  22073570.54309
  22922735.48608 120459773.44508  93864737.99308  22922734.49708  22922734.38808
  20874734.68809 109697486.60109  85478557.10009  20874731.33909  20874732.96309
  22997332.10008 120851813.84408  94170242.22108  22997330.53508  22997330.81008
  20985750.62009 110280873.92109  85933148.86109  20985749.38909  20985749.43609
  23957539.19406 125897698.75106  98102083.47305  23957538.71305  23957536.57405
  24056599.79207 126418263.59507  98507731.29706  24056599.95906  24056599.21806
 17  1 13  0 55 30.0000000  0  9G06G12G24G28G19G02G17G13G15
  21068313.94809 110714765.21109  86271248.01709  21068316.29309  21068313.54109
  24195166.89407 127146473.65907  99075162.02007  24195165.85507  24195166.33407
  22059949.13609 115925833.97109  90331839.41809  22059951.11509  22059948.57509
  22937336.52108 120536503.04808  93924527.24908  22937336.06408  22937335.28008
  20880112.89409 109725748.71109  85500579.52309  20880109.29809  20880110.95809
  22975293.33008 120735996.44808  94079994.88709  22975291.04309  22975291.75209
  20997933.32509 110344894.29009  85983034.84309  20997932.06509  20997932.34309
  23973928.45707 125983826.77807  98169196.16605  23973927.93605  23973926.47805
  24067475.75407 126475418.34107  98552267.38206  24067476.57406  24067474.51706
 17  1 13  0 56  0.0000000  0 10G30G06G12G24G28G19G02G17G13G15
  24922138.41606 130966729.37916                                                
  21056954.02209 110655066.98709  86224729.94909  21056955.71609  21056953.34909
  24180795.18707 127070949.84607  99016312.30607  24180794.38207  24180794.34107
  22046405.05009 115854657.39109  90276377.17309  22046406.24509  22046404.03209
  22951967.07108 120613382.89808  93984433.59108  22951966.08208  22951965.41308
  20885548.44309 109754312.82109  85522837.26209  20885545.03109  20885546.63309
  22953280.21908 120620317.48708  93989855.53708  22953277.51508  22953278.85808
  21010167.24509 110409184.76009  86033131.30209  21010166.13109  21010166.61009
  23990327.12706 126070002.37906                                                
  24078394.21206 126532796.83706  98596977.85506  24078395.14106  24078393.71106
 17  1 13  0 56 30.0000000  0  9G06G12G24G28G19G02G17G13G15
  21045686.73509 110595858.49809  86178593.48509  21045689.32609  21045686.43409
  24166415.02207 126995384.92507  98957430.58107  24166414.80707  24166414.22407
  22032938.31509 115783889.44009  90221233.34109  22032939.55709  22032937.31109
  22966624.78708 120690412.18508  94044456.36608  22966624.08708  22966624.02208
  20891041.21509 109783177.04109  85545328.85709  20891037.86509  20891039.30709
  22931293.82708 120504779.77708  93899826.23408  22931291.09508  22931292.78508
  21022452.41109 110473743.10809  86083436.48809  21022451.59009  21022451.62409
  24006734.86906 126156222.58606                                                
  24089354.40406 126590395.87706  98641860.17306  24089356.09706  24089354.20406
 17  1 13  0 57  0.0000000  0  9G06G12G24G28G19G02G17G13G15
  21034513.51009 110537142.06209  86132840.43009  21034515.67509  21034513.10109
  24152027.36707 126919779.36407  98898517.22407  24152027.80307  24152027.21007
  22019549.74709 115713532.73209  90166409.95609  22019551.46409  22019549.11009
  22981311.07008 120767590.99308  94104595.65608  22981310.68508  22981310.21008
  20896590.69909 109812339.81909  85568053.09809  20896587.15609  20896588.85509
  22909334.76507 120389386.71007  93809909.57409  22909332.83909  22909334.27709
  21034788.02909 110538566.59309  86133948.28609  21034786.58009  21034787.05409
  24023149.66506 126242484.42206                                                
  24100357.55307 126648212.52807  98686912.08107  24100358.43907  24100356.82307
 17  1 13  0 57 30.0000000  0  9G06G12G24G28G19G02G17G13G15
  21023434.06709 110478920.01509  86087472.63309  21023436.42209  21023433.26309
  24137632.72107 126844133.72407  98839572.65707  24137632.53607  24137631.88007
  22006239.94309 115643589.73509  90111908.94909  22006241.16209  22006239.02009
  22996026.66908 120844919.50108  94164851.60908  22996026.01008  22996025.01908
  20902196.51309 109841799.64709  85591008.79609  20902193.12009  20902194.80009
  22887405.34408 120274141.33008  93720108.05508  22887402.08008  22887404.01208
  21047173.51209 110603653.40009  86184665.25409  21047172.39909  21047172.45909
  24039571.79607 126328785.10907                                                
  24111400.85107 126706244.17707  98732131.45206  24111401.90806  24111399.97506
 17  1 13  0 58  0.0000000  0 10G30G06G12G24G28G19G02G17G13G15
  25005153.33506 131402956.49916                                                
  21012449.26909 110421194.35409  86042491.61709  21012451.19309  21012449.00909
  24123230.68708 126768448.22508  98780596.96107  24123230.02007  24123229.13707
  21993009.37309 115574062.75109  90057732.08609  21993011.02509  21993008.73009
  23010770.12608 120922397.41608  94225223.99808  23010769.67008  23010769.27308
  20907859.02109 109871554.89109  85614194.70609  20907855.70509  20907857.08009
  22865502.90708 120159046.09408  93630423.47108  22865500.16108  22865501.73608
  21059608.83609 110669001.60209  86235585.93909  21059607.98909  21059608.18009
  24056001.28807 126415121.58707  98505304.75315  24056001.60805  24056001.05905
  24122483.87907 126764488.05607  98777516.22206  24122485.16706  24122483.44106
 17  1 13  0 58 30.0000000  0  9G06G12G24G28G19G02G17G13G15
  21001559.58109 110363967.15609  85997899.00709  21001561.66709  21001558.71009
  24108820.49108 126692722.72408  98721590.10108  24108819.75108  24108819.76208
  21979858.20709 115504954.32309  90003881.39409  21979860.10809  21979857.64309
  23025542.83308 121000024.33808  94285712.43608  23025541.63108  23025541.47208
  20913576.96009 109901603.60409  85637609.26709  20913573.72309  20913574.84509
  22843629.83208 120044104.25008  93540858.44108  22843627.89608  22843628.17808
  21072093.63209 110734608.67809  86286708.32009  21072092.34209  21072092.49209
  24072437.05306 126501490.96806  98572605.39205  24072437.38805  24072436.99005
  24133607.72507 126822941.04407  98823063.96307  24133608.06607  24133607.07707
 17  1 13  0 59  0.0000000  0  9G06G12G24G28G19G02G17G13G15
  20990764.57409 110307240.36309  85953696.34309  20990766.55109  20990764.01509
  24094402.70008 126616957.41908  98662552.28208  24094402.56808  24094402.30908
  21966787.44209 115436266.75009  89950358.61509  21966789.29909  21966787.34509
  23040342.40008 121077799.87508  94346316.70708  23040341.76208  23040341.53108
  20919350.55709 109931943.72509  85661250.92809  20919346.87509  20919348.81009
  22821786.70307 119929318.92507  93451415.44107  22821784.76207  22821784.30107
  21084626.85109 110800472.12209  86338030.47409  21084625.74109  21084626.08209
  24088878.18307 126587890.09807  98639929.32806  24088878.97206  24088878.23306
  24144769.78807 126881599.69707  98868771.95907  24144771.05407  24144768.74207
 17  1 13  0 59 30.0000000  0  9G06G12G24G28G19G02G17G13G15
  20980065.40609 110251016.32409  85909885.41709  20980067.89309  20980064.80209
  24079977.93108 126541153.44308  98603484.28608  24079977.90808  24079977.00308
  21953797.57709 115368002.78609  89897165.93509  21953799.14609  21953796.66509
  23055171.67408 121155724.52408  94407037.16008  23055170.60908  23055169.50308
  20925179.35509 109962574.86209  85685119.34509  20925176.12909  20925177.54009
  22799975.14208 119814693.12608  93362096.65909  22799972.10109  22799972.68009
  21097208.95709 110866590.34209  86389551.14709  21097207.78609  21097207.73509
  24105325.45508 126674316.21408  98707274.34106  24105325.93706  24105324.22806
  24155970.87807 126940462.24607  98914638.89306  24155971.79606  24155970.39206
 17  1 13  1  0  0.0000000  0  9G06G12G24G28G19G02G17G13G15
  20969462.29509 110195296.87309  85866467.68309  20969464.68809  20969461.97609
  24065545.28208 126465310.76508  98544386.13308  24065544.51808  24065544.69308
  21940887.97609 115300164.43209  89844304.88909  21940890.04009  21940887.96509
  23070028.11408 121233798.03608  94467873.61508  23070027.55708  23070027.36408
  20931063.21309 109993494.85909  85709212.85409  20931060.04909  20931061.44809
  22778192.62408 119700229.66508  93272904.38408  22778190.38408  22778191.59408
  21109838.83109 110932961.01609  86441268.54509  21109837.49309  21109837.69109
  24121775.79307 126760766.12307  98774637.80406  24121776.52406  24121775.84806
  24167210.55407 126999525.42507  98960662.08106  24167211.26806  24167209.88606
