     2.11           OBSERVATION DATA    M (MIXED)           RINEX VERSION / TYPE
teqc  2016Apr1                          20170114 00:30:03UTCPGM / RUN BY / DATE
Linux 2.4.20-8|Pentium IV|gcc|Linux|486/DX+                 COMMENT
teqc  2016Apr1                          20170114 00:07:50UTCCOMMENT
Solaris x86 5.10|AMD64|cc SC5.8 -xarch=amd64|=+|=+          COMMENT
BIT 2 OF LLI FLAGS DATA COLLECTED UNDER A/S CONDITION       COMMENT
SEP3                                                        MARKER NAME
50124M003                                                   MARKER NUMBER
geodesy@ga.gov.au   GEOSCIENCE AUSTRALIA                    OBSERVER / AGENCY
3007592             SEPT POLARX4TR      2.9.6               REC # / TYPE / VERS
CR519994908         ASH701945C_M    NONE                    ANT # / TYPE
 -4648240.0068  2560636.5563 -3526319.0239                  APPROX POSITION XYZ
        0.0300        0.0000        0.0000                  ANTENNA: DELTA H/E/N
     1     1                                                WAVELENGTH FACT L1/2
     7    L1    L2    C1    P1    P2    S1    S2            # / TYPES OF OBSERV
    30.0000                                                 INTERVAL
Forced Modulo Decimation to 30 seconds                      COMMENT
 SNR is mapped to RINEX snr flag value [0-9]                COMMENT
  L1 & L2: min(max(int(snr_dBHz/6), 0), 9)                  COMMENT
    17                                                      LEAP SECONDS
teqc.static edited: all Galileo satellites excluded         COMMENT
  2017     1    13     0     0    0.0000000     GPS         TIME OF FIRST OBS
                                                            END OF HEADER
 17  1 13  0  0  0.0000000  0 15G01G24G28G06G30G19R13G15G13G17R24R14
                                R12R17R23
 128315924.994 6  99986439.21643  24417707.397    24417707.504    24417712.530
        38.750          20.000
 125762727.819 6  97996944.47643  23931849.413    23931849.364    23931852.892
        37.750          21.250
 112966476.933 7  88025835.88445  21496808.751    21496808.090    21496808.747
        46.500          32.250
 119787399.610 6  93340863.10543  22794782.128    22794782.154    22794787.158
        38.750          22.000
 119610259.890 6  93202805.24343  22761077.476    22761077.061    22761081.858
        36.250          20.750
 108771793.035 8  84757243.50947  20698580.814    20698579.875    20698579.025
        51.000          45.750
 105465666.276 6  82028882.497 7  19750330.297                    19750338.122
        41.250          46.000
 122101459.471 7  95143989.73844  23235135.175    23235135.171    23235135.904
        43.250          28.000
 117411659.981 7  91489577.39244  22342696.702    22342696.412    22342697.292
        45.500          29.750
 105391770.227 8  82123460.91647  20055384.674    20055384.567    20055384.755
        51.500          46.500
 103619498.131 6  80592967.755 6  19377363.150                    19377369.692
        39.250          36.000
 110679130.501 6  86083818.526 6  20763119.525                    20763130.311
        40.000          40.250
 123952886.666 4                  23204239.244
        29.500
 121031411.962 5  94135581.366 6  22617611.567                    22617620.448
        35.250          39.000
 108217496.502 7  84169208.174 6  20230114.388                    20230124.444
        43.750          40.000
 17  1 13  0  0 30.0000000  0 14G01G24G28G06G30G19R13G15G13G17R24R14
                                R17R23
 128379500.181 6 100035978.29643  24429806.257    24429806.386    24429810.568
        39.750          19.750
 125662240.210 6  97918642.48043  23912727.467    23912727.463    23912730.418
        40.000          21.000
 113025832.071 7  88072086.62645  21508103.399    21508102.729    21508103.757
        46.000          32.000
 119689794.261 6  93264807.00743  22776208.573    22776208.666    22776213.232
        40.000          23.000
 119700348.649 6  93273004.17243  22778222.191    22778221.816    22778224.669
        39.000          21.250
 108758139.605 8  84746604.46947  20695982.940    20695982.001    20695980.914
        51.000          45.750
 105479744.912 6  82039832.543 7  19752966.461                    19752974.398
        41.250          46.250
 122118410.536 7  95157198.31444  23238360.378    23238360.400    23238361.898
        42.250          27.000
 117473916.402 7  91538088.86544  22354543.720    22354543.448    22354544.073
        46.000          29.500
 105412714.135 8  82139780.84047  20059370.151    20059370.044    20059370.307
        51.750          46.250
 103582256.375 6  80564001.939 6  19370398.763                    19370405.041
        39.750          36.750
 110596475.938 6  86019531.673 6  20747613.991                    20747624.401
        40.250          40.250
 120907777.252 5  94039421.144 6  22594507.324                    22594515.833
        34.750          38.750
 108295767.378 7  84230085.501 6  20244746.739                    20244756.148
        43.750          39.750
 17  1 13  0  1  0.0000000  0 14G01G24G28G06G30G19R13G15G13G17R24R14
                                R17R23
 128443492.188 6 100085842.18743  24441983.170    24441983.286    24441987.328
        39.500          18.500
 125561876.724 6  97840437.20243  23893627.593    23893627.601    23893632.342
        38.000          21.750
 113085355.384 7  88118468.42145  21519430.368    21519429.693    21519430.471
        46.250          31.500
 119592368.030 6  93188890.53743  22757670.500    22757670.620    22757673.867
        41.000          23.750
 119790703.828 6  93343410.79743  22795416.354    22795415.939    22795419.028
        37.750          19.250
 108744928.009 8  84736309.71747  20693468.864    20693467.925    20693466.736
        50.750          45.500
 105494324.781 6  82051172.436 7  19755696.982                    19755704.802
        41.750          46.000
 122135841.481 7  95170780.86144  23241677.580    23241677.602    23241678.706
        42.750          27.000
 117536551.495 7  91586895.38845  22366463.018    22366462.719    22366463.335
        46.500          30.250
 105434160.039 8  82156491.93247  20063451.173    20063451.062    20063451.258
        51.250          46.000
 103545759.851 6  80535615.780 6  19363573.118                    19363580.268
        39.250          36.250
 110514001.155 6  85955384.637 6  20732141.524                    20732152.350
        40.750          40.000
 120784415.937 5  93943473.542 6  22571453.708                    22571462.575
        33.500          38.250
 108374586.455 7  84291389.233 6  20259480.570                    20259490.488
        43.750          39.500
 17  1 13  0  1 30.0000000  0 14G01G24G28G06G30G19R13G15G13G17R24R14
                                R17R23
 128507899.291 6 100136029.48543  24454239.105    24454239.145    24454243.840
        39.000          20.500
 125461639.894 6  97762330.61343  23874553.592    23874553.548    23874557.951
        39.000          21.000
 113145046.811 7  88164981.20645  21530789.792    21530789.108    21530789.206
        47.500          32.500
 119495124.255 6  93113116.19743  22739164.395    22739164.596    22739169.135
        40.250          21.750
 119881324.224 6  93414024.00943  22812660.978    22812660.581    22812664.046
        38.750          18.250
 108732157.536 8  84726358.69647  20691038.506    20691037.563    20691036.641
        50.500          45.500
 105509407.443 6  82062903.400 7  19758521.759                    19758529.455
        41.500          46.250
 122153750.560 7  95184735.93844  23245086.365    23245086.405    23245086.499
        43.000          27.000
 117599562.710 7  91635994.99145  22378453.727    22378453.446    22378454.157
        46.750          30.750
 105456106.327 8  82173592.93847  20067627.378    20067627.271    20067627.507
        51.750          46.250
 103510008.863 6  80507809.481 6  19356887.912                    19356894.678
        39.000          36.750
 110431709.461 6  85891380.039 6  20716704.173                    20716714.909
        41.000          40.500
 120661331.462 5  93847741.254 6  22548453.873                    22548461.774
        35.000          38.500
 108453950.192 7  84353116.574 6  20274316.846                    20274326.876
        44.000          40.000
 17  1 13  0  2  0.0000000  0 14G01G24G28G06G30G19R13G15G13G17R24R14
                                R17R23
 128572719.865 6 100186538.95743  24466574.782    24466574.822    24466578.856
        40.250          19.750
 125361532.920 6  97684325.20443  23855503.585    23855503.572    23855508.768
        39.000          21.750
 113204906.114 7  88211624.79145  21542180.530    21542179.837    21542180.302
        46.750          32.250
 119398066.134 6  93037486.57043  22720695.002    22720695.176    22720699.482
        40.000          22.500
 119972208.326 5  93484842.78042  22829954.616    22829954.160    22829958.797
        35.500          16.250
 108719827.390 8  84716750.79347  20688692.254    20688691.311    20688690.430
        51.250          46.000
 105524994.391 6  82075026.572 7  19761440.763                    19761448.338
        41.250          46.000
 122172136.587 7  95199062.67744  23248584.752    23248584.787    23248585.736
        42.750          27.500
 117662947.454 7  91685385.66645  22390515.209    22390514.937    22390516.211
        45.500          30.000
 105478551.404 8  82191082.60147  20071898.645    20071898.534    20071898.743
        51.500          46.250
 103475004.483 6  80480583.868 6  19350341.721                    19350348.513
        39.000          36.750
 110349603.473 6  85827519.836 6  20701300.564                    20701311.967
        40.250          40.500
 120538527.067 5  93752226.726 6  22525503.784                    22525511.914
        32.750          36.250
 108533854.586 7  84415264.429 6  20289254.315                    20289264.108
        44.000          40.000
 17  1 13  0  2 30.0000000  0 14G01G24G28G06G30G19R13G15G13G17R24R14
                                R17R23
 128637951.382 6 100237368.64343  24478986.906    24478986.889    24478991.463
        37.250          18.000
 125261557.150 6  97606422.06043  23836479.170    23836479.170    23836483.664
        39.250          22.250
 113264932.345 7  88258398.46745  21553603.362    21553602.674    21553602.825
        47.250          32.250
 119301196.329 6  92962003.59344  22702261.704    22702261.878    22702265.607
        41.500          24.000
 120063354.162 5  93555865.44641  22847299.647    22847299.250    22847303.421
        32.250          11.500
 108707936.436 8  84707485.11547  20686429.439    20686428.496    20686427.704
        51.250          46.000
 105541086.397 6  82087542.566 7  19764453.961                    19764462.167
        41.000          46.000
 122190997.599 7  95213759.55044  23252173.815    23252173.819    23252174.508
        43.500          27.250
 117726702.349 7  91735064.76944  22402647.759    22402647.500    22402648.054
        45.250          29.500
 105501493.152 8  82208959.27847  20076264.455    20076264.344    20076264.455
        51.750          46.250
 103440746.807 6  80453939.013 6  19343935.688                    19343942.256
        39.000          36.500
 110267686.111 6  85763806.339 6  20685934.075                    20685944.194
        40.750          40.500
 120416005.407 5  93656932.196 6  22502607.512                    22502616.661
        35.000          37.500
 108614295.291 7  84477829.395 6  20304292.095                    20304301.155
        44.000          39.750
 17  1 13  0  3  0.0000000  0 14G01G24G28G06G30G19R13G15G13G17R24R14
                                R17R23
 128703591.939 6 100288517.10442  24491478.433    24491478.429    24491482.542
        36.500          16.000
 125161714.910 6  97528622.89543  23817480.140    23817480.220    23817483.601
        40.250          23.000
 113325125.418 7  88305302.15145  21565057.620    21565056.914    21565057.338
        47.000          32.750
 119204517.904 7  92886669.77344  22683864.715    22683864.880    22683868.297
        42.500          24.250
 120154760.249 5  93627090.98041  22864692.796    22864692.282    22864697.545
        31.750           8.000
 108696484.020 8  84698561.15647  20684250.082    20684249.143    20684248.195
        50.750          45.750
 105557684.953 6  82100452.552 7  19767562.423                    19767570.240
        41.000          46.250
 122210331.966 7  95228825.25744  23255852.391    23255852.347    23255853.983
        42.750          27.500
 117790824.809 7  91785030.28444  22414849.216    22414848.939    22414850.392
        45.000          29.500
 105524929.805 8  82227221.59547  20080724.000    20080723.893    20080724.143
        51.500          46.000
 103407235.887 6  80427874.963 6  19337668.735                    19337675.023
        39.500          36.000
 110185960.105 6  85700241.680 6  20670601.646                    20670612.570
        40.500          40.750
 120293769.934 5  93561860.202 6  22479764.545                    22479773.654
        34.250          37.250
 108695268.576 7  84540808.597 6  20319428.989                    20319438.147
        43.500          39.750
 17  1 13  0  3 30.0000000  0 14G01G24G28G06G30G19R13G15G13G17R24R14
                                R17R23
 128769640.051 6 100339983.13542  24504046.241    24504046.224    24504051.384
        36.000          15.750
 125062009.179 6  97450930.15543  23798506.634    23798506.718    23798509.818
        40.250          23.000
 113385485.302 7  88352335.81445  21576543.715    21576543.013    21576543.693
        46.750          32.500
 119108034.279 7  92811487.73944  22665504.009    22665504.174    22665508.490
        42.500          26.750


 108685469.591 8  84689978.49047  20682153.991    20682153.048    20682152.109
        50.500          45.250
 105574791.772 6  82113757.854 7  19770765.920                    19770774.095
        41.250          46.500
 122230138.456 7  95244258.86244  23259622.756    23259622.712    23259623.077
        44.000          26.500
 117855312.394 7  91835280.28344  22427121.123    22427120.828    22427121.790
        45.250          28.750
 105548859.757 8  82245868.31147  20085277.990    20085277.879    20085277.820
        51.750          45.750
 103374472.780 6  80402392.578 6  19331541.580                    19331548.582
        39.250          36.250
 110104428.136 6  85636827.954 6  20655307.131                    20655317.787
        41.000          40.750
 120171824.028 6  93467013.436 6  22456976.718                    22456985.224
        37.250          37.500
 108776770.756 7  84604199.165 6  20334665.301                    20334674.678
        44.000          40.250
 17  1 13  0  4  0.0000000  0 14G01G24G28G06G30G19R13G15G13G17R24R14
                                R17R23
 128836093.221 6 100391764.78142  24516692.983    24516692.970    24516697.405
        37.000          17.000
 124962442.159 6  97373345.50143  23779559.622    23779559.684    23779563.441
        40.750          23.000
 113446011.265 7  88399498.86945  21588061.537    21588060.844    21588061.211
        47.000          32.250
 119011748.157 7  92736459.62244  22647181.259    22647181.424    22647185.730
        42.250          26.500


 108674891.983 8  84681736.20047  20680141.224    20680140.281    20680139.319
        50.750          45.500
 105592407.962 6  82127459.321 7  19774065.048                    19774072.752
        41.250          46.000
 122250415.140 7  95260058.84744  23263480.348    23263480.295    23263481.363
        42.500          26.500
 117920161.861 7  91885812.31244  22439461.505    22439461.192    22439462.180
        45.000          28.500
 105573281.003 8  82264897.84947  20089925.159    20089925.057    20089925.311
        51.500          45.750
 103342457.692 6  80377491.964 6  19325555.101                    19325561.518
        39.250          36.250
 110023093.562 6  85573567.755 6  20640048.350                    20640059.627
        40.500          40.500
 120050170.344 6  93372393.951 6  22434242.015                    22434250.739
        36.750          37.500
 108858797.375 7  84667997.641 6  20349998.808                    20350008.431
        44.000          39.750
 17  1 13  0  4 30.0000000  0 13G01G24G28G06G19R13G15G13G17R24R14R17
                                R23
 128902950.034 5 100443861.00142  24529414.418    24529414.351    24529419.922
        35.750          17.000
 124863016.387 6  97295870.91343  23760640.093    23760640.155    23760643.174
        40.000          23.250
 113506703.687 7  88446791.65845  21599610.567    21599609.865    21599610.831
        46.250          32.250
 118915663.075 7  92661588.18244  22628897.143    22628897.290    22628901.082
        43.000          28.250
 108664751.121 8  84673834.23747  20678211.518    20678210.571    20678209.609
        51.000          46.000
 105610535.073 6  82141558.191 7  19777459.734                    19777467.640
        41.500          46.250
 122271160.855 7  95276224.34144  23267427.861    23267427.826    23267428.867
        42.750          26.750
 117985370.755 7  91936624.43244  22451870.365    22451870.035    22451871.130
        45.750          29.250
 105598192.307 8  82284309.24847  20094665.513    20094665.411    20094665.643
        51.250          45.750
 103311190.810 6  80353173.270 6  19319708.285                    19319714.438
        39.000          36.250
 109941959.719 6  85510463.670 6  20624827.796                    20624838.998
        40.500          41.000
 119928812.671 6  93278004.686 6  22411564.400                    22411571.890
        36.500          36.750
 108941345.015 7  84732201.340 6  20365430.261                    20365440.385
        44.000          40.000
 17  1 13  0  5  0.0000000  0 13G01G24G28G06G19R13G15G13G17R24R14R17
                                R23
 128970207.990 6 100496269.69343  24542215.520    24542215.351    24542218.556
        38.000          18.750
 124763733.892 6  97218507.93643  23741746.232    23741746.294    23741750.328
        39.500          23.250
 113567562.199 7  88494213.86345  21611191.725    21611191.006    21611191.671
        46.500          32.250
 118819781.692 7  92586875.46844  22610651.004    22610651.156    22610655.744
        42.750          28.000
 108655045.925 8  84666271.74547  20676364.702    20676363.755    20676362.829
        51.000          46.250
 105629173.832 6  82156055.000 7  19780950.564                    19780957.987
        41.250          46.250
 122292373.484 7  95292753.65144  23271464.216    23271464.194    23271466.250
        42.250          27.250
 118050936.171 7  91987714.33544  22464347.390    22464347.086    22464348.133
        46.000          29.750
 105623591.503 8  82304100.82947  20099498.841    20099498.734    20099498.850
        51.500          45.750
 103280672.571 6  80329436.907 5  19314001.229                    19314007.301
        39.000          35.750
 109861028.336 6  85447517.077 6  20609644.710                    20609656.194
        40.000          40.750
 119807753.543 6  93183847.619 6  22388940.431                    22388949.643
        36.500          38.000
 109024409.295 7  84796806.885 6  20380958.632                    20380968.309
        43.750          40.250
 17  1 13  0  5 30.0000000  0 14G01G24G28G06G30G19R13G15G13G17R24R14
                                R17R23
 129037865.369 6 100548989.68043  24555088.847    24555088.611    24555093.967
        37.250          18.500
 124664597.902 6  97141259.15043  23722882.039    23722882.123    23722885.956
        40.000          23.500
 113628586.578 7  88541765.30745  21622803.836    21622803.126    21622804.337
        46.250          31.500
 118724107.282 7  92512324.00844  22592444.909    22592445.092    22592448.934
        42.500          26.000
 120615673.402 5                  22952397.095
        34.500
 108645775.890 8  84659048.35247  20674600.468    20674599.525    20674598.751
        50.750          45.750
 105648325.688 6  82170950.877 7  19784536.931                    19784544.233
        41.500          46.000
 122314051.657 7  95309645.70644  23275590.151    23275590.155    23275591.188
        43.750          26.750
 118116855.217 7  92039079.77544  22476891.566    22476891.262    22476891.906
        45.500          28.250
 105649477.367 8  82324271.63447  20104424.709    20104424.602    20104424.834
        51.250          45.500
 103250903.341 6  80306283.070 6  19308434.555                    19308440.628
        39.000          36.250
 109780303.189 6  85384730.856 6  20594501.784                    20594512.324
        40.250          40.750
 119686996.439 6  93089925.462 6  22366376.096                    22366384.239
        36.000          40.000
 109107986.599 7  84861811.450 6  20396582.186                    20396592.042
        43.750          40.000
 17  1 13  0  6  0.0000000  0 14G01G24G28G06G30G19R13G15G13G17R24R14
                                R17R23
 129105920.064 5 100602019.26042  24568038.438    24568038.188    24568044.112
        35.000          17.000
 124565610.307 6  97064126.03143  23704044.998    23704045.047    23704049.528
        40.000          23.750
 113689776.324 7  88589445.60845  21634448.151    21634447.454    21634448.460
        46.000          31.750
 118628642.859 7  92437936.17444  22574279.193    22574279.353    22574282.203
        44.000          27.500
 120708608.966 5                  22970082.184
        32.250
 108636939.868 8  84652163.14647  20672919.263    20672918.320    20672917.309
        51.000          45.750
 105667992.024 6  82186246.922 7  19788219.236                    19788227.316
        41.500          46.000
 122336193.881 7  95326899.35944  23279803.747    23279803.773    23279804.619
        42.250          26.250
 118183124.895 7  92090718.47344  22489502.284    22489501.963    22489502.199
        46.000          28.000
 105675847.474 8  82344819.76647  20109442.741    20109442.634    20109442.929
        51.000          45.500
 103221883.138 6  80283711.817 6  19303007.020                    19303013.428
        39.250          36.500
 109699786.904 6  85322107.096 6  20579396.500                    20579407.661
        40.250          40.500
 119566544.367 5  92996240.595 6  22343865.398                    22343874.283
        35.000          39.500
 109192072.688 7  84927211.706 6  20412301.513                    20412311.275
        44.000          40.250
 17  1 13  0  6 30.0000000  0 15G01G24G28G06G30G19R13G15G13G17R24R14
                                R12R17R23
 129174370.035 6 100655356.82742  24581065.437    24581065.308    24581069.712
        37.500          17.500
 124466773.199 6  96987110.12644  23685237.179    23685237.255    23685241.016
        39.000          24.250
 113751131.151 7  88637254.55345  21646123.701    21646123.004    21646123.419
        46.250          31.250
 118533391.469 7  92363714.35944  22556153.216    22556153.372    22556157.227
        43.000          28.500
 120801793.810 5                  22987815.610
        34.250
 108628536.529 8  84645615.09247  20671320.162    20671319.215    20671318.262
        51.250          46.000
 105688173.852 6  82201943.887 7  19791999.009                    19792006.812
        41.750          46.250
 122358797.913 7  95344512.85144  23284105.971    23284105.963    23284106.275
        44.000          28.250
 118249742.481 7  92142628.27344  22502178.887    22502178.561    22502179.410
        45.000          28.750
 105702699.930 8  82365743.76347  20114552.755    20114552.653    20114552.692
        51.250          45.500
 103193612.327 6  80261723.434 6  19297719.738                    19297726.490
        39.250          36.250
 109619482.950 6  85259648.490 6  20564332.431                    20564343.100
        40.750          40.750
 125195943.371 4                  23436935.341
        29.500
 119446400.468 5  92902795.389 6  22321414.365                    22321422.235
        35.750          39.500
 109276663.623 7  84993004.643 6  20428114.096                    20428124.448
        43.500          40.250
 17  1 13  0  7  0.0000000  0 15G01G24G28G06G30G19R13G15G13G17R24R14
                                R12R17R23
 129243213.438 5 100709000.98742  24594164.282    24594164.211    24594169.898
        35.000          16.500
 124368089.557 6  96910213.82344  23666456.856    23666456.981    23666462.222
        38.500          24.500
 113812650.982 7  88685192.06445  21657830.498    21657829.810    21657830.239
        46.000          31.000
 118438356.393 7  92289661.11344  22538068.427    22538068.565    22538072.345
        43.250          29.000
 120895226.395 5                  23005594.857
        30.500
 108620565.603 8  84639403.98747  20669803.101    20669802.158    20669801.313
        51.000          45.750
 105708872.832 6  82218043.081 7  19795875.472                    19795883.136
        41.250          46.500
 122381862.163 7  95362484.98344  23288493.402    23288493.385    23288495.517
        42.250          27.500
 118316705.526 7  92194807.24744  22514921.714    22514921.388    22514922.358
        45.500          28.500
 105730033.263 8  82387042.46447  20119754.213    20119754.111    20119754.101
        51.500          45.750
 103166091.319 6  80240318.216 6  19292573.630                    19292580.051
        39.000          36.500
 109539393.824 6  85197356.961 6  20549307.399                    20549318.610
        40.750          40.750
 125293517.389 4                  23455200.332
        28.250
 119326568.140 6  92809592.518 6  22299021.682                    22299028.908
        36.000          39.750
 109361755.831 7  85059187.470 6  20444022.068                    20444032.040
        43.750          40.500
 17  1 13  0  7 30.0000000  0 14G01G24G28G06G30G19R13G15G13G17R24R14
                                R17R23
 129312448.005 6 100762949.96042  24607340.477    24607340.446    24607345.078
        36.250          16.500
 124269561.759 6  96833438.98944  23647708.720    23647708.858    23647712.606
        39.750          24.500
 113874335.262 7  88733257.70645  21669568.583    21669567.908    21669568.534
        46.000          31.250
 118343540.515 7  92215778.64344  22520025.252    22520025.381    22520029.714
        44.000          28.750
 120988905.046 4                  23023420.972
        29.000
 108613026.206 8  84633529.12947  20668368.480    20668367.541    20668366.611
        51.000          46.000
 105730089.681 6  82234545.067 7  19799848.880                    19799856.481
        41.500          46.250
 122405385.484 7  95380814.83244  23292970.596    23292970.583    23292971.370
        43.000          27.250
 118384010.844 7  92247252.91244  22527730.283    22527729.953    22527730.395
        45.500          28.750
 105757845.484 8  82408714.32247  20125046.584    20125046.486    20125046.665
        51.250          45.500
 103139319.786 6  80219495.933 6  19287566.852                    19287573.658
        39.000          36.750
 109459522.655 6  85135234.958 6  20534323.712                    20534334.743
        41.250          41.000
 119207050.202 6  92716634.248 6  22276684.912                    22276693.811
        37.000          39.000
 109447344.908 7  85125756.711 6  20460021.739                    20460031.546
        42.750          39.750
 17  1 13  0  8  0.0000000  0 14G01G24G28G06G30G19R13G15G13G17R24R14
                                R17R23
 129382071.943 6 100817202.29442  24620589.452    24620589.385    24620593.946
        37.250          15.500
 124171191.845 6  96756787.10243  23628990.276    23628990.378    23628992.972
        40.250          23.750
 113936184.459 7  88781451.85745  21681337.782    21681337.121    21681338.126
        45.750          31.500
 118248947.037 7  92142069.47444  22502024.364    22502024.493    22502028.979
        42.000          27.000
 121082828.258 4                  23041296.091
        28.000
 108605917.354 8  84627989.76747  20667015.501    20667014.562    20667013.824
        51.000          45.500
 105751825.647 6  82251450.804 7  19803918.924                    19803926.566
        41.250          46.000
 122429365.681 7  95399500.65044  23297534.147    23297534.173    23297534.902
        43.500          28.000
 118451655.588 7  92299963.08044  22540602.077    22540601.720    22540602.645
        44.750          28.250
 105786134.852 8  82430757.98647  20130429.948    20130429.850    20130430.047
        51.250          45.500
 103113297.791 6  80199256.616 6  19282700.475                    19282707.222
        39.000          36.250
 109379872.685 6  85073284.987 6  20519381.700                    20519392.642
        41.000          40.750
 119087849.926 5  92623922.944 6  22254410.052                    22254418.933
        34.500          36.750
 109533427.027 7  85192709.471 6  20476113.445                    20476123.694
        43.000          39.750
 17  1 13  0  8 30.0000000  0 14G01G24G28G06G30G19R13G15G13G17R24R14
                                R17R23
 129452083.088 5 100871756.36442  24633910.835    24633910.800    24633916.693
        35.000          14.000
 124072982.982 6  96680260.76244  23610301.384    23610301.362    23610305.042
        40.000          24.500
 113998197.912 7  88829773.98145  21693139.047    21693138.413    21693139.069
        46.000          31.250
 118154579.010 7  92068535.98444  22484067.159    22484067.297    22484071.135
        42.000          28.000
 121176994.424 5  94423635.5254   23059212.845    23059211.893    23059217.795
        30.000           4.750
 108599238.458 8  84622785.43547  20665744.760    20665743.821    20665743.034
        51.000          46.000
 105774081.843 6  82268761.178 7  19808086.418                    19808094.601
        41.250          46.000
 122453801.030 7  95418541.17044  23302183.328    23302183.324    23302184.822
        42.750          26.750
 118519636.998 7  92352935.57844  22553537.676    22553537.332    22553539.116
        43.750          28.000
 105814899.259 8  82453171.80847  20135903.331    20135903.238    20135903.630
        51.000          45.250
 103088025.828 6  80179600.633 6  19277974.904                    19277981.245
        39.250          36.500
 109300446.281 6  85011508.895 6  20504481.122                    20504492.150
        40.750          40.500
 118968970.344 5  92531461.016 5  22232194.379                    22232202.253
        35.000          34.750
 109619998.144 7  85260042.540 6  20492297.473                    20492307.480
        43.250          39.500
 17  1 13  0  9  0.0000000  0 14G01G24G28G06G30G19R13G15G13G17R24R14
                                R17R23
 129522479.391 5 100926610.59541  24647308.349    24647308.442    24647312.566
        34.000          11.500
 123974937.294 6  96603861.58043  23591643.450    23591643.410    23591647.313
        39.250          23.500
 114060375.575 7  88878224.08945  21704971.068    21704970.456    21704970.647
        46.250          31.000
 118060439.617 7  91995180.63745  22466153.142    22466153.280    22466157.242
        43.750          30.250
 121271401.731 5  94497199.6664   23077180.880    23077180.116    23077182.512
        34.250           5.500
 108592988.558 8  84617915.38647  20664555.858    20664554.919    20664553.725
        51.250          46.000
 105796859.838 6  82286477.373 7  19812352.310                    19812360.238
        41.500          46.000
 122478689.876 7  95437935.03044  23306919.979    23306919.966    23306920.771
        43.250          26.750
 118587952.106 7  92406168.09244  22566538.047    22566537.721    22566539.138
        44.500          28.250
 105844137.129 8  82475954.56247  20141467.102    20141467.004    20141467.406
        51.000          45.000
 103063503.634 6  80160527.843 6  19273388.764                    19273395.668
        39.250          36.500
 109221247.378 6  84949909.753 6  20489623.763                    20489634.862
        41.250          40.500
 118850414.697 5  92439251.108 6  22210040.167                    22210047.452
        35.000          37.250
 109707054.173 7  85327752.772 6  20508572.100                    20508581.638
        43.250          39.500
 17  1 13  0  9 30.0000000  0 14G01G24G28G06G30G19R13G15G13G17R24R14
                                R17R23
 129593258.571 5 100981763.19041  24660775.561    24660775.539    24660781.647
        31.250           8.750
 123877057.297 6  96527591.45743  23573017.022    23573016.964    23573020.912
        39.500          23.500
 114122717.109 7  88926801.87845  21716834.224    21716833.603    21716834.591
        45.750          32.000
 117966531.641 7  91922005.65845  22448282.512    22448282.655    22448287.655
        43.750          31.000
 121366048.554 5  94570950.40241  23095190.706    23095189.835    23095193.313
        35.000           8.500
 108587165.989 8  84613378.32947  20663447.437    20663446.494    20663445.675
        51.250          46.000
 105820160.257 6  82304599.917 7  19816715.505                    19816723.826
        41.250          46.000
 122504029.747 7  95457680.36644  23311741.587    23311741.556    23311742.884
        42.250          26.750
 118656598.101 7  92459658.46044  22579601.235    22579600.900    22579601.356
        45.250          28.000
 105873846.344 8  82499104.59747  20147120.776    20147120.674    20147120.892
        51.000          45.250
 103039730.998 6  80142038.044 6  19268943.032                    19268949.730
        39.250          36.250
 109142278.191 6  84888489.284 6  20474810.190                    20474820.206
        41.500          40.500
 118732185.777 6  92347295.314 6  22187947.857                    22187953.934
        36.500          37.000
 109794591.235 7  85395837.139 6  20524935.435                    20524946.077
        42.250          39.750
 17  1 13  0 10  0.0000000  0 14G01G24G28G06G30G19R13G15G13G17R24R14
                                R17R23
 129664418.870 5 101037212.7234   24674318.434    24674318.715    24674323.245
        31.000           4.500
 123779345.386 6  96451452.36544  23554423.962    23554423.851    23554427.338
        41.000          24.750
 114185222.290 7  88975507.19745  21728727.855    21728727.238    21728728.919
        45.500          31.000
 117872858.428 7  91849013.58445  22430457.471    22430457.605    22430461.768
        44.500          31.500
 121460933.426 5  94644886.62341  23113245.012    23113244.199    23113249.510
        30.250           6.750
 108581770.925 8  84609174.38847  20662421.052    20662420.113    20662418.977
        51.750          46.250
 105843984.532 6  82323129.887 7  19821177.030                    19821185.079
        41.250          45.750
 122529819.997 7  95477776.63744  23316649.175    23316649.158    23316650.476
        42.000          26.750
 118725572.009 7  92513404.33744  22592726.409    22592726.065    22592726.686
        45.750          28.500
 105904025.264 8  82522620.63947  20152863.600    20152863.498    20152863.743
        51.000          44.750
 103016708.076 6  80124131.301 6  19264638.205                    19264644.698
        39.250          36.250
 109063542.081 6  84827250.102 6  20460039.200                    20460050.160
        41.750          40.750
 118614286.898 6  92255596.219 6  22165914.142                    22165921.212
        36.500          36.000
 109882605.051 7  85464292.314 6  20541389.141                    20541398.791
        43.000          39.750
 17  1 13  0 10 30.0000000  0 14G01G24G28G06G30G19R13G15G13G17R24R14
                                R17R23
 129735957.867 5 101092957.45341  24687931.649    24687931.966    24687936.541
        31.500           6.250
 123681804.395 6  96375446.46044  23535861.765    23535861.605    23535865.995
        40.250          24.500
 114247890.851 7  89024339.82245  21740654.227    21740653.615    21740653.945
        46.500          31.250
 117779422.862 7  91776206.65845  22412677.079    22412677.226    22412680.880
        44.000          31.250
 121556054.498 5  94719006.7004   23131347.951    23131347.156    23131350.460
        33.500           5.250
 108576802.098 8  84605302.59247  20661475.264    20661474.325    20661473.439
        51.000          46.000
 105868333.737 6  82342068.132 7  19825737.048                    19825744.717
        41.250          46.000
 122556058.112 7  95498221.90444  23321643.123    23321643.097    23321643.986
        43.500          27.000
 118794870.759 7  92567403.30744  22605913.644    22605913.318    22605914.368
        45.750          28.000
 105934671.793 8  82546501.04447  20158695.428    20158695.321    20158695.566
        51.500          45.250
 102994434.701 6  80106807.600 6  19260472.822                    19260479.359
        39.000          36.750
 108985042.089 6  84766194.555 6  20445311.750                    20445323.595
        41.000          41.000
 118496720.951 5  92164156.065 6  22143942.275                    22143951.952
        35.500          37.500
 109971091.801 7  85533115.328 6  20557930.853                    20557941.017
        43.000          39.500
 17  1 13  0 11  0.0000000  0 14G01G24G28G06G30G19R13G15G13G17R24R14
                                R17R23
 129807873.474 5 101148995.53741  24701616.634    24701616.960    24701621.580
        32.750           6.750
 123584436.395 6  96299575.28744  23517333.771    23517333.651    23517337.165
        41.250          24.500
 114310722.350 7  89073299.41245  21752610.907    21752610.286    21752610.724
        46.750          31.500
 117686227.941 7  91703587.27845  22394943.067    22394943.219    22394946.617
        45.750          32.000
 121651410.045 5                  23149493.125
        33.000
 108572258.249 8  84601761.94047  20660610.648    20660609.709    20660608.632
        51.250          46.000
 105893208.082 6  82361414.831 7  19830395.374                    19830403.262
        41.250          46.000
 122582742.134 7  95519014.60444  23326720.736    23326720.696    23326721.778
        43.500          27.250
 118864491.463 7  92621653.18844  22619162.185    22619161.877    22619163.164
        45.500          28.250
 105965783.753 8  82570744.12747  20164616.004    20164615.897    20164615.977
        51.250          45.000
 102972910.725 6  80090066.751 6  19256448.183                    19256454.058
        39.250          37.000
 108906781.115 6  84705324.948 6  20430631.051                    20430641.921
        41.000          40.750
 118379490.947 6  92072977.241 6  22122035.818                    22122044.985
        36.250          37.250
 110060047.252 7  85602302.892 6  20574560.236                    20574570.203
        43.250          40.000
 17  1 13  0 11 30.0000000  0 14G01G24G28G06G30G19R13G15G13G17R24R14
                                R17R23
 129880163.937 5 101205325.66441  24715374.037    24715374.434    24715378.048
        34.500           8.250
 123487243.819 6  96223840.85944  23498839.171    23498839.015    23498842.471
        41.750          25.500
 114373717.145 7  89122386.24745  21764597.758    21764597.132    21764598.039
        45.750          30.750
 117593277.074 7  91631158.07845  22377254.553    22377254.696    22377259.190
        44.750          32.500
 121746998.604 5                  23167682.836
        35.750
 108568138.660 8  84598551.87847  20659826.701    20659825.767    20659824.729
        51.250          46.000
 105918609.635 6  82381171.577 7  19835151.799                    19835160.058
        41.250          46.250
 122609870.375 7  95540153.48044  23331882.200    23331882.120    23331883.881
        42.000          26.750
 118934431.667 7  92676152.01944  22632471.299    22632470.986    22632472.560
        44.750          28.500
 105997359.670 8  82595348.73547  20170624.434    20170624.327    20170624.697
        50.750          45.000
 102952136.058 6  80073908.695 6  19252563.045                    19252569.189
        39.500          36.500
 108828762.852 6  84644644.071 6  20415995.189                    20416005.518
        41.000          41.250
 118262600.326 6  91982062.379 6  22100192.599                    22100201.181
        36.000          37.750
 110149467.743 7  85671852.126 6  20591276.807                    20591286.439
        43.500          39.500
 17  1 13  0 12  0.0000000  0 14G01G24G28G06G30G19R13G15G13G17R24R14
                                R17R23
 129952826.677 5 101261945.96141  24729199.628    24729200.034    24729205.374
        30.250           8.250
 123390229.578 7  96148245.35844  23480377.635    23480377.457    23480380.622
        42.000          24.500
 114436874.614 7  89171599.83145  21776616.299    21776615.651    21776616.580
        45.750          30.500
 117500573.026 7  91558921.16945  22359613.801    22359613.957    22359618.076
        44.750          32.250
 121842818.278 5                  23185914.813
        34.500
 108564442.279 8  84595671.60347  20659123.293    20659122.354    20659121.361
        51.500          46.000
 105944538.907 6  82401338.767 7  19840008.214                    19840015.985
        41.500          46.250
 122637440.850 7  95561636.93544  23337129.738    23337129.716    23337130.575
        43.000          27.500
 119004687.859 7  92730897.04944  22645840.498    22645840.190    22645841.356
        45.250          28.000
 106029397.333 8  82620313.14347  20176721.196    20176721.089    20176721.312
        51.500          44.750
 102932109.961 6  80058332.824 6  19248817.681                    19248824.169
        39.250          36.500
 108750989.490 6  84584153.691 6  20401405.094                    20401415.508
        41.250          41.000
 118146051.673 6  91891413.453 6  22078413.092                    22078421.365
        36.500          38.500
 110239349.004 7  85741759.782 6  20608078.012                    20608088.520
        42.250          39.500
 17  1 13  0 12 30.0000000  0 14G01G24G28G06G30G19R13G15G13G17R24R14
                                R17R23
 130025859.681 5 101318854.63741  24743097.695    24743098.025    24743103.083
        31.500           8.000
 123293396.160 6  96072790.76844  23461950.740    23461950.580    23461953.915
        41.250          25.500
 114500195.076 7  89220940.42545  21788666.034    21788665.386    21788666.203
        45.500          30.500
 117408118.869 7  91486879.02945  22342020.157    22342020.335    22342024.396
        44.500          31.750
 121938867.423 5  95017307.66041  23204194.528    23204193.786    23204197.283
        35.750          11.500
 108561168.194 8  84593120.37447  20658499.953    20658499.019    20658498.285
        51.000          46.000
 105970996.895 6  82421917.192 7  19844963.035                    19844970.829
        41.250          46.500
 122665451.725 7  95583463.57444  23342460.342    23342460.302    23342460.860
        43.250          26.750
 119075257.491 7  92785886.34444  22659269.755    22659269.460    22659270.019
        45.250          27.000
 106061894.843 8  82645635.87547  20182905.293    20182905.182    20182905.307
        51.000          44.750
 102912832.599 6  80043339.346 6  19245212.560                    19245219.281
        39.500          36.250
 108673464.929 6  84523856.831 6  20386861.736                    20386872.173
        41.250          41.250
 118029848.119 5  91801032.999 6  22056696.031                    22056705.373
        33.500          38.000
 110329687.002 7  85812022.642 6  20624966.937                    20624975.961
        42.750          39.250
 17  1 13  0 13  0.0000000  0 14G01G24G28G06G30G19R13G15G13G17R24R14
                                R17R23
 130099260.847 5 101376050.2754   24757066.060    24757066.203    24757070.741
        31.000           4.500
 123196746.032 6  95997479.01444  23443558.013    23443557.866    23443562.064
        41.250          24.500
 114563677.665 7  89270407.36745  21800746.113    21800745.461    21800746.506
        45.750          30.250
 117315917.727 7  91415033.99345  22324474.861    22324475.026    22324478.912
        45.500          32.250
 122035144.359 5  95092328.66941  23222513.550    23222513.550    23222518.634
        35.000           8.250
 108558315.363 8  84590897.40147  20657957.259    20657956.325    20657955.457
        51.000          46.000
 105997984.377 6  82442907.428 7  19850016.474                    19850024.523
        41.000          46.250
 122693901.234 7  95605632.00944  23347872.467    23347872.396    23347874.310
        42.000          26.750
 119146137.594 7  92841117.57244  22672757.618    22672757.288    22672758.418
        45.000          27.000
 106094850.184 8  82671315.35947  20189176.427    20189176.316    20189176.494
        51.250          44.750
 102894303.762 6  80028928.027 6  19241747.370                    19241754.364
        39.500          36.250
 108596191.601 6  84463755.356 6  20372364.624                    20372376.134
        41.250          41.500
 117913992.883 5  91710923.385 6  22035045.271                    22035054.648
        34.750          36.000
 110420477.721 7  85882637.635 6  20641938.605                    20641948.626
        42.000          38.750
 17  1 13  0 13 30.0000000  0 14G01G24G28G06G30G19R13G15G13G17R24R14
                                R17R23
 130173028.062 5 101433531.20141  24771103.802    24771103.794    24771108.113
        33.250           9.500
 123100281.519 6  95922311.89344  23425201.582    23425201.426    23425205.150
        40.750          25.250
 114627322.522 7  89320000.71945  21812857.605    21812856.975    21812857.744
        46.250          30.750
 117223972.799 7  91343388.63245  22306978.484    22306978.640    22306982.312
        44.500          30.750
 122131647.587 6  95167525.94541  23240878.258    23240878.307    23240881.965
        36.000           6.000
 108555882.767 8  84589001.88047  20657494.334    20657493.395    20657492.523
        51.000          45.750
 106025502.964 6  82464310.753 7  19855170.140                    19855177.965
        41.250          46.250
 122722787.262 7  95628140.55644  23353370.470    23353370.474    23353371.655
        42.750          26.500
 119217325.235 7  92896588.45744  22686303.374    22686303.039    22686304.962
        43.000          26.250
 106128261.563 8  82697350.20347  20195534.385    20195534.269    20195534.484
        51.000          44.750
 102876522.951 6  80015098.525 6  19238421.954                    19238429.319
        39.250          36.500
 108519172.998 6  84403852.004 6  20357916.673                    20357927.226
        41.250          41.000
 117798488.745 5  91621086.941 6  22013460.293                    22013469.813
        34.250          37.000
 110511717.258 7  85953601.706 6  20658994.920                    20659005.076
        42.750          39.500
 17  1 13  0 14  0.0000000  0 14G01G24G28G06G30G19R13G15G13G17R24R14
                                R17R23
 130247159.089 5 101491295.61141  24785209.164    24785209.093    24785214.906
        32.000           6.750
 123004005.383 6  95847291.53644  23406881.260    23406881.149    23406884.381
        41.500          24.750
 114691129.635 7  89369720.56145  21824999.384    21824998.727    21824999.496
        45.500          30.500
 117132287.067 7  91271945.22245  22289530.776    22289530.923    22289535.534
        43.500          31.250
 122228375.158 5  95242898.11141  23259286.474    23259286.452    23259288.357
        35.250          10.000
 108553869.417 8  84587433.04347  20657111.282    20657110.348    20657109.341
        51.000          46.000
 106053552.970 6  82486127.422 7  19860422.678                    19860430.807
        41.250          46.000
 122752107.738 7  95650987.69344  23358950.183    23358950.143    23358951.292
        42.250          26.500
 119288817.295 7  92952296.50244  22699908.299    22699907.964    22699909.614
        43.500          27.250
 106162126.994 8  82723738.84647  20201979.058    20201978.942    20201978.874
        51.250          44.750
 102859489.799 6  80001850.516 6  19235237.224                    19235243.968
        39.000          36.250
 108442412.112 6  84344149.106 6  20343516.957                    20343527.345
        41.500          41.250
 117683338.957 5  91531526.027 6  21991943.516                    21991951.927
        35.500          41.000
 110603401.438 7  86024911.617 6  20676134.386                    20676144.268
        42.500          39.250
 17  1 13  0 14 30.0000000  0 14G01G24G28G06G30G19R13G15G13G17R24R14
                                R17R23
 130321651.613 5 101549341.67041  24799386.032    24799385.934    24799390.486
        35.000           7.750
 122907919.593 6  95772419.53444  23388596.097    23388596.053    23388600.234
        41.250          25.750
 114755098.102 7  89419566.10545  21837172.254    21837171.593    21837172.688
        45.500          31.000
 117040863.191 7  91200705.86245  22272133.893    22272134.080    22272137.797
        45.500          32.500
 122325325.186 5  95318443.57041  23277734.949    23277734.838    23277737.333
        35.250          11.500
 108552274.171 8  84586189.99647  20656807.824    20656806.885    20656805.870
        51.250          45.750
 106082135.280 6  82508358.088 7  19865775.925                    19865783.464
        41.000          46.250
 122781860.474 6  95674171.63444  23364610.810    23364610.788    23364612.765
        41.250          27.000
 119360610.683 7  93008239.34944  22713570.041    22713569.706    22713571.583
        44.000          27.500
 106196444.203 8  82750479.52647  20208509.290    20208509.174    20208509.326
        51.000          45.000
 102843203.537 6  79989183.444 6  19232191.625                    19232198.153
        39.000          36.250
 108365911.774 6  84284648.865 6  20329165.369                    20329175.972
        41.000          41.250
 117568545.912 5  91442242.655 6  21970489.592                    21970498.678
        34.750          36.250
 110695526.006 7  86096564.043 6  20693355.798                    20693366.043
        42.000          39.000
 17  1 13  0 15  0.0000000  0 14G01G24G28G06G30G19R13G15G13G17R24R14
                                R17R23
 130396503.774 5 101607668.03841  24813631.499    24813631.392    24813634.343
        34.750           9.250
 122812027.799 6  95697698.66844  23370348.121    23370348.059    23370352.485
        40.500          24.750
 114819228.628 7  89469537.93045  21849375.974    21849375.308    21849376.493
        45.500          30.750
 116949704.897 7  91129673.43245  22254787.141    22254787.319    22254790.763
        46.000          32.250
 122422496.479 5  95394161.40341  23296225.855    23296225.695    23296228.328
        35.000          10.000
 108551096.378 8  84585272.24947  20656583.429    20656582.490    20656581.703
        50.750          46.000
 106111251.257 6  82531003.848 7  19871228.175                    19871235.924
        41.000          46.000
 122812044.089 7  95697691.31744  23370356.228    23370356.245    23370356.653
        43.500          27.750
 119432703.042 7  93064415.20644  22727289.328    22727288.993    22727289.864
        44.750          27.750
 106231211.397 8  82777570.83947  20215125.310    20215125.190    20215125.208
        51.250          44.500
 102827664.402 6  79977097.476 6  19229285.991                    19229292.658
        38.750          36.250
 108289675.622 6  84225354.099 6  20314863.251                    20314874.216
        41.500          41.500
 117454113.350 6  91353239.542 6  21949107.581                    21949115.285
        37.250          39.000
 110788087.437 7  86168556.233 6  20710659.712                    20710669.295
        42.500          38.750
 17  1 13  0 15 30.0000000  0 15G01G24G28G06G30G19R13G15G13G17R24R14
                                R17R15R23
 130471713.044 5 101666272.60641  24827939.292    24827939.252    24827946.250
        31.000           6.500
 122716331.545 6  95623130.21144  23352138.927    23352138.896    23352142.518
        41.000          25.750
 114883520.403 7  89519635.40145  21861610.132    21861609.480    21861610.526
        44.750          30.500
 116858814.565 7  91058849.80645  22237491.097    22237491.271    22237495.148
        45.750          32.250
 122519886.746 5  95470049.94941  23314757.100    23314756.989    23314761.062
        33.000          10.500
 108550334.493 8  84584678.57547  20656438.504    20656437.565    20656436.787
        51.000          46.000
 106140901.136 6  82554064.860 7  19876779.828                    19876788.508
        41.000          46.500
 122842655.961 6  95721544.70944  23376179.676    23376179.650    23376182.386
        41.000          27.500
 119505090.652 7  93120821.13544  22741064.170    22741063.862    22741064.666
        44.500          28.500
 106266426.311 8  82805011.02247  20221826.265    20221826.149    20221826.332
        50.750          44.500
 102812871.265 6  79965591.710 6  19226519.819                    19226525.927
        38.500          36.250
 108213706.711 6  84166267.169 6  20300611.618                    20300622.864
        41.000          41.500
 117340043.525 6  91264518.621 6  21927789.210                    21927798.488
        36.500          40.500
 125775197.839 4                  23537111.891
        28.250
 110881081.060 7  86240884.599 6  20728043.708                    20728053.613
        42.250          38.500
 17  1 13  0 16  0.0000000  0 16G01G24G28G06G30G02G19R13G15G13G17R24
                                R14R17R15R23
 130547277.521 5 101725154.03641  24842322.159    24842322.413    24842325.798
        33.250           8.750
 122620833.875 7  95548716.47144  23333966.848    23333966.831    23333969.670
        42.000          26.750
 114947973.651 7  89569858.69845  21873875.507    21873874.850    21873875.605
        45.250          30.750
 116768195.799 7  90988237.80845  22220247.121    22220247.273    22220250.881
        46.000          32.500
 122617494.749 6  95546107.97442  23333332.350    23333331.997    23333335.466
        36.000          12.250
 130074468.591 5                  24752344.793
        30.250
 108549987.690 8  84584408.34447  20656372.480    20656371.546    20656370.607
        50.750          46.000
 106171086.428 6  82577542.305 7  19882433.475                    19882441.332
        41.250          46.250
 122873694.602 6  95745730.62044  23382086.788    23382086.792    23382088.500
        41.250          26.750
 119577771.099 7  93177455.18645  22754895.189    22754894.885    22754895.990
        45.250          30.000
 106302087.351 8  82832798.84047  20228612.341    20228612.225    20228612.457
        51.000          44.750
 102798823.871 6  79954665.960 6  19223893.107                    19223899.023
        38.750          36.000
 108138008.404 6  84107390.724 6  20286411.372                    20286421.831
        41.500          41.750
 117226339.948 6  91176082.556 6  21906541.396                    21906551.243
        37.750          41.250
                  97738313.034 5                                  23516217.935
                        32.000
 110974503.335 7  86313546.363 6  20745508.042                    20745518.452
        42.250          38.750
 17  1 13  0 16 30.0000000  0 16G01G24G28G06G30G02G19R13G15G13G17R24
                                R14R17R15R23
 130623194.797 5 101784310.2194   24856767.744    24856767.842    24856772.475
        31.250           4.250
 122525537.266 6  95474459.42644  23315831.060    23315831.052    23315835.255
        40.500          25.000
 115012587.936 7  89620207.47345  21886171.199    21886170.533    21886171.454
        45.500          30.750
 116677851.322 7  90917839.53945  22203054.765    22203054.908    22203058.825
        45.500          32.250
 122715318.395 6  95622334.17042  23351947.088    23351946.708    23351951.453
        37.000          15.000
 129956665.730 5 101264919.50641  24729927.610    24729927.137    24729927.784
        30.500           9.500
 108550054.954 8  84584460.76447  20656385.377    20656384.438    20656383.333
        51.250          46.000
 106201807.206 6  82601436.237 7  19888185.958                    19888194.325
        41.000          46.250
 122905157.626 7  95770247.22544  23388074.299    23388074.286    23388075.480
        42.000          26.250
 119650741.114 7  93234314.92744  22768780.190    22768779.904    22768781.576
        43.750          28.750
 106338192.279 8  82860932.55147  20235482.909    20235482.802    20235482.980
        51.000          44.250
 102785521.459 6  79944319.653 6  19221404.524                    19221411.321
        38.500          36.750
 108062583.628 6  84048727.023 6  20272261.562                    20272272.687
        41.500          41.500
 117113005.326 6  91087933.415 6  21885362.737                    21885370.611
        38.500          39.500
                  97651374.071 5                                  23495301.491
                        33.000
 111068349.775 7  86386538.003 6  20763051.259                    20763061.401
        42.000          38.750
 17  1 13  0 17  0.0000000  0 16G01G24G28G06G30G02G19R13G15G13G17R24
                                R14R17R15R23
 130699462.465 5 101843739.7204   24871281.142    24871281.285    24871285.743
        30.250           4.000
 122430444.063 6  95400360.84544  23297735.271    23297735.288    23297739.712
        40.250          26.500
 115077363.174 7  89670681.66845  21898497.446    21898496.780    21898497.553
        45.500          30.750
 116587784.105 7  90847657.30345  22185915.899    22185916.042    22185919.816
        46.250          33.000
 122813355.911 6  95698726.91142  23370604.012    23370603.588    23370607.903
        38.250          12.000
 129838783.401 5 101173063.23841  24707493.618    24707493.328    24707495.510
        30.500           8.250
 108550534.913 8  84584834.75647  20656476.750    20656475.807    20656474.921
        51.000          46.250
 106233064.325 6  82625747.337 7  19894039.276                    19894047.325
        41.250          46.000
 122937042.879 7  95795092.83644  23394142.493    23394142.501    23394142.989
        42.000          26.250
 119723997.508 7  93291397.75044  22782720.308    22782720.063    22782721.837
        43.250          26.750
 106374738.699 8  82889410.26847  20242437.382    20242437.271    20242437.525
        50.750          44.250
 102772963.521 6  79934552.397 6  19219056.600                    19219062.874
        38.750          36.000
 107987435.309 6  83990278.344 6  20258163.636                    20258174.945
        41.500          41.500
 117000042.412 6  91000073.368 6  21864252.971                    21864261.606
        37.250          41.000
 125439863.957 4  97564377.490 5  23474357.324                    23474368.015
        29.000          32.750
 111162616.719 7  86459856.725 6  20780673.584                    20780684.190
        42.250          39.000
 17  1 13  0 17 30.0000000  0 16G01G24G28G06G30G02G19R13G15G13G17R24
                                R14R17R15R23
 130776078.447 4 101903440.34841  24885860.782    24885861.063    24885865.276
        29.250           6.750
 122335556.844 7  95326422.81744  23279679.526    23279679.570    23279683.148
        42.000          27.000
 115142298.944 7  89721280.96845  21910854.569    21910853.903    21910854.690
        45.750          30.250
 116497997.180 7  90777693.48245  22168829.547    22168829.699    22168834.081
        46.000          33.000
 122911605.497 6  95775284.96241  23389300.148    23389299.768    23389304.280
        37.250          10.500
 129720824.396 4 101081147.14741  24685046.869    24685046.610    24685048.935
        28.500           6.750
 108551426.592 8  84585529.57447  20656646.381    20656645.438    20656644.561
        51.500          46.250
 106264858.762 6  82650476.325 7  19899993.836                    19900001.469
        40.750          46.000
 122969348.419 6  95820265.93344  23400289.368    23400289.390    23400291.747
        41.500          27.000
 119797537.496 7  93348701.63444  22796715.167    22796714.931    22796715.740
        44.750          26.750
 106411724.952 8  82918230.71447  20249475.537    20249475.430    20249475.935
        51.250          44.250
 102761149.135 6  79925363.428 6  19216846.604                    19216853.705
        38.500          36.250
 107912566.720 6  83932047.243 6  20244118.516                    20244129.413
        41.500          41.250
 116887454.150 6  90912504.774 6  21843212.829                    21843220.668
        36.500          40.500
 125327938.970 5  97477324.748 5  23453415.284                    23453424.187
        30.250          33.000
 111257299.814 7  86533499.105 6  20798374.291                    20798383.726
        42.500          39.000
 17  1 13  0 18  0.0000000  0 16G01G24G28G06G30G02G19R13G15G13G17R24
                                R14R17R15R23
 130853040.700 4 101963410.7974   24900504.971    24900505.230    24900510.918
        28.750           5.750
 122240878.592 6  95252647.58144  23261661.413    23261661.475    23261666.256
        40.250          26.250
 115207395.379 7  89772005.43745  21923242.086    21923241.416    21923242.023
        45.750          30.000
 116408493.788 7  90707950.59545  22151797.928    22151798.097    22151801.980
        46.000          33.750
 123010065.640 5  95852007.08541  23408035.205    23408034.866    23408040.888
        34.250          11.250
 129602791.788 5 100989173.80941  24662586.723    24662586.437    24662587.908
        34.000           6.750
 108552729.060 8  84586544.48647  20656894.019    20656893.080    20656892.342
        51.000          46.000
 106297191.655 6  82675624.137 7  19906048.458                    19906056.355
        40.750          45.500
 123002072.296 7  95845765.01444  23406517.069    23406517.140    23406518.169
        42.250          25.750
 119871358.429 7  93406224.40444  22810762.340    22810762.068    22810763.342
        45.000          27.000
 106449149.069 8  82947392.36147  20256597.267    20256597.156    20256597.383
        51.000          44.000
 102750077.995 6  79916752.554 6  19214776.976                    19214783.348
        38.750          36.000
 107837980.811 7  83874036.008 6  20230126.460                    20230137.429
        42.000          41.500
 116775243.887 6  90825230.170 7  21822243.226                    21822252.554
        37.750          42.250
 125215944.033 5  97390217.587 5  23432455.054                    23432465.531
        30.500          33.750
 111352395.310 7  86607462.231 6  20816151.200                    20816160.877
        42.250          38.750
 17  1 13  0 18 30.0000000  0 16G01G24G28G06G30G02G19R13G15G13G17R24
                                R14R17R15R23


 122146411.712 7  95179037.04944  23243687.270    23243687.301    23243689.609
        43.000          28.000
 115272652.169 7  89822854.88645  21935659.822    21935659.156    21935660.068
        45.750          30.000
 116319276.861 7  90638430.95445  22134820.224    22134820.411    22134824.508
        46.000          34.000
 123108734.497 5  95928891.79841  23426811.391    23426810.971    23426817.276
        34.500           8.250
 129484687.370 6 100897144.53541  24640113.542    24640113.149    24640113.434
        36.500           8.750
 108554441.148 8  84587878.57547  20657219.996    20657219.057    20657218.140
        51.000          46.000
 106330063.418 6  82701191.059 7  19912204.675                    19912212.451
        41.000          45.750
 123035212.279 7  95871588.36444  23412823.268    23412823.303    23412823.161
        42.750          25.500
 119945456.869 7  93463963.43744  22824862.676    22824862.377    22824863.879
        44.250          27.000
 106487008.993 8  82976893.59047  20263801.726    20263801.619    20263801.896
        51.250          44.250
 102739749.142 6  79908719.000 5  19212844.810                    19212851.585
        38.750          35.750
 107763681.318 6  83816247.531 6  20216188.685                    20216199.225
        41.750          41.750
 116663414.041 6  90738251.420 6  21801345.765                    21801354.073
        38.250          41.000
 125103881.145 5  97303057.567 5  23411485.452                    23411496.085
        32.500          34.250
 111447899.029 6  86681742.892 6  20834003.943                    20834014.205
        41.750          38.750
 17  1 13  0 19  0.0000000  0 16G01G24G28G06G30G02G19R13G15G13G17R24
                                R14R17R15R23
 131007994.535 4 102084153.9784   24929995.845    24929996.506    24929997.709
        28.000           3.750
 122052158.291 6  95105592.87244  23225750.354    23225750.354    23225754.244
        41.750          27.250
 115338069.073 7  89873829.07345  21948108.587    21948107.912    21948108.457
        45.750          30.750
 116230349.255 7  90569136.75545  22117897.918    22117898.105    22117902.019
        45.750          34.250
 123207610.160 6  96005937.75541  23445627.724    23445627.389    23445632.786
        36.500           8.750
 129366513.627 6 100805061.20141  24617624.907    24617624.456    24617625.474
        37.500          10.500
 108556561.579 8  84589530.86247  20657623.350    20657622.411    20657621.651
        51.250          46.000
 106363474.520 6  82727177.472 7  19918461.329                    19918469.548
        41.000          46.250
 123068766.174 7  95897734.24944  23419207.797    23419207.801    23419209.277
        42.250          27.750
 120019829.805 7  93521916.32744  22839015.621    22839015.317    22839016.842
        44.750          27.250
 106525302.048 8  83006732.32147  20271088.923    20271088.807    20271088.807
        51.000          44.250
 102730161.843 6  79901262.224 6  19211052.074                    19211058.696
        39.000          36.000
 107689671.109 7  83758684.038 6  20202304.409                    20202314.613
        42.000          41.500
 116551967.633 6  90651570.904 7  21780519.522                    21780527.965
        37.000          42.750
 124991752.381 5  97215846.346 5  23390500.194                    23390510.846
        30.000          34.500
 111543806.643 6  86756337.671 6  20851933.379                    20851943.444
        41.750          38.500
 17  1 13  0 19 30.0000000  0 15G24G28G06G30G02G19R13G15G13G17R24R14
                                R17R15R23
 121958121.218 7  95032317.26244  23207856.266    23207856.235    23207859.244
        42.250          28.000
 115403645.977 7  89924927.93944  21960587.074    21960586.381    21960587.414
        45.000          29.500
 116141713.969 7  90500070.32945  22101031.173    22101031.383    22101035.291
        45.750          34.250
 123306690.782 5  96083143.45942  23464481.136    23464480.944    23464487.172
        35.250          12.000
 129248273.638 6 100712926.19741  24595124.270    24595123.850    24595124.712
        36.500          11.500
 108559089.112 8  84591500.36847  20658104.510    20658103.571    20658102.578
        50.750          46.250
 106397425.928 6  82753584.093 7  19924819.198                    19924827.404
        41.250          45.750
 123102731.943 7  95924201.03244  23425672.458    23425672.450    23425673.124
        42.500          26.500
 120094474.389 7  93580080.94044  22853220.821    22853220.535    22853220.468
        45.500          27.250
 106564026.463 8  83036907.18747  20278457.755    20278457.644    20278457.844
        50.750          44.500
 102721315.296 6  79894381.605 6  19209397.668                    19209404.523
        38.750          36.500
 107615953.631 7  83701348.238 6  20188475.178                    20188485.552
        42.250          41.250
 116440907.390 6  90565190.754 7  21759763.619                    21759773.577
        37.250          43.500
 124879559.955 5  97128585.606 6  23369505.068                    23369516.014
        32.000          36.250
 111640114.264 6  86831243.572 6  20869936.565                    20869946.299
        41.500          38.500
 17  1 13  0 20  0.0000000  0 15G24G28G06G30G02G19R13G15G13G17R24R14
                                R17R15R23
 121864303.384 7  94959212.48844  23190002.879    23190002.848    23190005.911
        42.250          28.000
 115469382.786 7  89976151.41345  21973096.326    21973095.638    21973096.537
        45.250          30.000
 116053374.315 7  90431234.25245  22084220.935    22084221.140    22084224.781
        46.000          35.500
 123405974.898 6  96160507.59041  23483375.941    23483375.745    23483380.176
        39.500          10.500
 129129969.978 5 100620741.53842  24572611.783    24572611.359    24572612.065
        32.750          12.000
 108562022.681 8  84593786.26747  20658662.810    20658661.871    20658660.909
        51.000          46.000
 106431918.334 6  82780411.512 7  19931278.743                    19931286.806
        41.500          46.250
 123137107.554 6  95950987.20144  23432213.194    23432213.168    23432214.473
        41.250          25.250
 120169387.338 7  93638454.63644  22867475.817    22867475.509    22867476.452
        43.750          26.000
 106603180.684 8  83067416.95947  20285908.314    20285908.203    20285908.784
        50.500          44.000
 102713208.578 6  79888076.388 5  19207881.913                    19207888.231
        38.500          35.750
 107542531.603 7  83644242.236 7  20174701.307                    20174711.944
        42.000          42.000
 116330236.393 6  90479113.338 6  21739083.339                    21739091.487
        37.500          41.500
 124767306.262 5  97041277.227 6  23348499.594                    23348509.329
        32.250          36.250
 111736818.067 7  86906457.641 6  20888014.315                    20888024.739
        42.000          38.000
 17  1 13  0 20 30.0000000  0 15G24G28G06G30G02G19R13G15G13G17R24R14
                                R17R15R23
 121770707.105 7  94886280.36044  23172191.910    23172191.902    23172195.429
        42.250          27.500
 115535279.379 7  90027499.37745  21985636.603    21985635.897    21985636.581
        46.250          30.000
 115965333.037 7  90362630.69345  22067467.040    22067467.268    22067471.239
        45.500          34.500
 123505460.576 6  96238028.88941  23502306.815    23502306.507    23502311.622
        36.750           6.750
 129011605.144 5 100528509.31941  24550086.364    24550086.016    24550087.760
        33.500          11.500
 108565361.081 8  84596387.62247  20659298.138    20659297.204    20659296.215
        51.500          46.000
 106466952.095 6  82807659.984 7  19937839.454                    19937847.150
        40.750          45.750
 123171890.418 6  95978090.68044  23438831.933    23438831.929    23438833.498
        41.250          25.500
 120244565.912 7  93697035.30644  22881782.081    22881781.777    22881782.885
        44.250          26.250
 106642761.976 8  83098259.52247  20293440.888    20293440.777    20293440.812
        51.000          43.500
 102705840.979 6  79882346.024 5  19206504.237                    19206510.918
        38.500          35.750
 107469408.681 7  83587368.859 6  20160983.392                    20160994.017
        42.000          41.250
 116219957.397 6  90393340.786 6  21718474.847                    21718482.726
        39.250          40.750
 124654993.222 5  96953922.714 5  23327481.027                    23327491.357
        33.750          35.500
 111833913.856 7  86981976.558 6  20906165.615                    20906175.922
        42.000          38.000
 17  1 13  0 21  0.0000000  0 15G24G28G06G30G02G19R13G15G13G17R24R14
                                R17R15R23
 121677335.092 7  94813522.96044  23154424.262    23154424.284    23154427.500
        43.250          27.750
 115601335.555 7  90078971.70045  21998206.803    21998206.110    21998206.593
        46.500          30.000
 115877593.267 7  90294262.09745  22050770.801    22050771.011    22050774.781
        46.500          34.500
 123605145.945 6  96315705.86841  23521276.855    23521276.466    23521281.081
        37.750           7.750
 128893181.838 6 100436231.43142  24527552.754    24527552.325    24527552.763
        37.000          14.250
 108569103.406 8  84599303.72247  20660010.029    20660009.095    20660008.250
        51.000          46.250
 106502528.030 6  82835330.138 7  19944501.908                    19944509.613
        41.000          45.750
 123207078.698 6  96005510.07544  23445528.175    23445528.210    23445529.556
        41.000          24.750
 120320007.194 7  93755820.67444  22896138.010    22896137.751    22896138.681
        44.250          25.500
 106682768.633 8  83129433.54047  20301053.678    20301053.576    20301053.803
        51.000          43.500
 102699211.706 6  79877189.919 5  19205264.207                    19205270.968
        38.750          35.750
 107396587.772 7  83530730.388 6  20147321.901                    20147332.955
        42.000          41.500
 116110073.229 6  90307875.363 7  21697940.432                    21697949.809
        36.250          43.750
 124542623.218 5  96866523.857 5  23306450.995                    23306462.474
        33.000          35.500
 111931397.527 6  87057797.184 6  20924389.659                    20924399.770
        41.250          38.250
 17  1 13  0 21 30.0000000  0 15G24G28G06G30G02G19R13G15G13G17R24R14
                                R17R15R23
 121584189.434 7  94740941.95844  23136698.974    23136698.982    23136702.475
        42.500          27.750
 115667551.049 7  90130568.17744  22010806.794    22010806.092    22010806.897
        45.250          29.750
 115790157.847 7  90226130.62445  22034132.211    22034132.421    22034136.374
        46.000          33.750
 123705029.218 5  96393536.78141  23540281.962    23540281.515    23540287.864
        32.500           8.250
 128774702.215 5 100343909.73042  24505005.241    24505004.584    24505006.797
        35.250          12.250
 108573248.179 8  84602533.41547  20660798.819    20660797.880    20660797.044
        51.000          46.250
 106538646.599 6  82863422.338 7  19951264.960                    19951273.394
        40.500          46.000
 123242669.960 6  96033243.48944  23452300.053    23452300.079    23452302.535
        40.250          25.500
 120395707.506 7  93814807.94844  22910543.629    22910543.384    22910543.539
        44.500          24.750
 106723198.332 8  83160937.19947  20308747.346    20308747.239    20308747.413
        51.000          43.750
 102693319.482 6  79872607.095 6  19204162.118                    19204168.897
        39.250          36.250
 107324071.940 6  83474329.210 7  20133717.705                    20133729.492
        41.750          42.000
 116000586.632 6  90222719.229 6  21677480.590                    21677488.599
        39.250          41.500
 124430198.571 5  96779082.509 6  23285413.661                    23285423.195
        32.750          36.250
 112029265.003 6  87133916.290 6  20942684.690                    20942695.015
        41.250          38.250
 17  1 13  0 22  0.0000000  0 15G24G28G06G30G02G19R13G15G13G17R24R14
                                R17R15R23
 121491273.122 6  94668539.68444  23119016.739    23119016.731    23119021.049
        41.500          27.500
 115733925.644 7  90182288.60844  22023436.977    22023436.307    22023437.630
        44.500          29.500
 115703029.821 7  90158238.68045  22017552.191    22017552.374    22017556.327
        46.250          34.500
 123805108.513 5  96471520.50441  23559326.826    23559326.250    23559332.447
        34.750           9.250
 128656169.408 6 100251546.58642  24482450.533    24482449.899    24482450.659
        36.000          12.250
 108577794.287 8  84606075.83947  20661664.235    20661663.292    20661662.034
        51.500          46.250
 106575308.261 6  82891936.957 7  19958131.052                    19958139.132
        40.750          46.000
 123278662.176 6  96061289.30444  23459150.177    23459150.217    23459151.746
        41.500          26.500
 120471664.496 7  93873995.17644  22924996.838    22924996.566    22924998.238
        43.250          24.750
 106764048.778 8  83192768.72047  20316520.698    20316520.596    20316520.931
        50.750          43.500
 102688163.084 6  79868596.560 6  19203198.411                    19203205.043
        39.000          36.500
 107251865.174 7  83418168.413 7  20120172.673                    20120183.454
        42.000          42.000
 115891500.490 6  90137874.445 6  21657094.928                    21657102.445
        39.750          40.250
 124317721.202 5  96691600.186 6  23264364.468                    23264375.401
        33.250          37.500
 112127512.460 6  87210330.957 6  20961051.178                    20961061.525
        41.750          38.500
 17  1 13  0 22 30.0000000  0 15G24G28G06G30G02G19R13G15G13G17R24R14
                                R17R15R23
 121398589.055 7  94596318.35944  23101380.176    23101380.189    23101383.807
        42.250          28.000
 115800459.364 7  90234133.03644  22036098.814    22036098.153    22036098.850
        45.500          29.500
 115616212.300 7  90090588.70245  22001031.128    22001031.324    22001035.627
        46.500          35.250
 123905382.194 5  96549655.8074   23578411.447    23578410.862    23578413.777
        31.500           5.000
 128537586.224 5 100159144.21141  24459884.562    24459883.838    24459884.906
        34.250          10.750
 108582740.935 8  84609930.37047  20662605.359    20662604.416    20662603.374
        51.000          46.000
 106612513.571 6  82920874.400 7  19965098.542                    19965106.175
        40.500          45.750
 123315053.172 7  96089645.91344  23466075.839    23466075.861    23466076.224
        42.500          25.750
 120547874.994 7  93933379.96443  22939499.531    22939499.245    22939500.407
        43.000          23.500
 106805318.218 8  83224926.72647  20324373.945    20324373.838    20324374.186
        50.500          43.750
 102683742.053 6  79865158.001 6  19202371.729                    19202377.931
        39.000          36.500
 107179970.138 6  83362250.046 7  20106685.249                    20106695.842
        41.500          42.000
 115782817.624 6  90053343.396 7  21636785.417                    21636793.310
        39.250          42.750
 124205193.575 5  96604078.795 6  23243305.813                    23243317.390
        34.000          36.500
 112226135.845 6  87287038.019 6  20979487.745                    20979497.685
        41.750          38.250
 17  1 13  0 23  0.0000000  0 15G24G28G06G30G02G19R13G15G13G17R24R14
                                R17R15R23
 121306139.342 7  94524279.62644  23083787.615    23083787.607    23083790.736
        42.250          27.500
 115867151.903 7  90286101.23044  22048789.073    22048788.403    22048789.404
        44.500          28.750
 115529707.979 7  90023182.74545  21984570.214    21984570.415    21984574.278
        46.250          34.750
 124005848.246 4                  23597526.243
        28.750
 128418954.752 6 100066704.14942  24437310.107    24437309.477    24437309.861
        37.000          14.500
 108588086.075 8  84614095.41747  20663622.541    20663621.594    20663620.614
        51.250          46.500
 106650263.291 6  82950235.273 7  19972167.667                    19972175.658
        40.250          46.000
 123351840.283 6  96118311.18744  23473075.158    23473075.145    23473076.670
        40.750          25.500
 120624335.429 7  93992959.47843  22954049.261    22954048.940    22954050.303
        42.250          22.750
 106847004.328 8  83257409.40947  20332306.518    20332306.411    20332306.760
        50.500          43.500
 102680054.595 6  79862289.988 6  19201681.628                    19201688.474
        38.750          36.000
 107108390.422 7  83306576.971 7  20093257.400                    20093268.051
        42.500          42.000
 115674540.402 6  89969127.848 7  21616551.124                    21616558.900
        40.500          43.250
 124092617.685 5  96516519.880 6  23222238.935                    23222250.383
        33.500          36.000
 112325130.941 7  87364034.189 6  20997994.498                    20998003.562
        42.000          37.750
 17  1 13  0 23 30.0000000  0 15G24G28G06G30G02G19R13G15G13G17R24R14
                                R17R15R23
 121213927.206 7  94452426.05444  23066240.333    23066240.341    23066243.235
        42.500          27.500
 115934003.668 7  90338193.48744  22061510.875    22061510.200    22061511.036
        44.500          28.750
 115443520.341 7  89956023.57045  21968168.928    21968169.129    21968173.006
        46.500          34.250


 128300277.857 5  99974228.66842  24414726.634    24414725.928    24414726.759
        35.750          12.000
 108593829.247 8  84618570.62147  20664715.276    20664714.329    20664713.479
        50.750          46.000
 106688558.047 6  82980020.052 7  19979339.117                    19979347.054
        40.250          45.750
 123389022.085 7  96147283.95844  23480151.546    23480151.572    23480152.869
        42.500          27.750
 120701043.590 7  94052732.02443  22968646.783    22968646.444    22968647.414
        42.250          22.500
 106889105.339 8  83290215.38447  20340318.141    20340318.030    20340318.356
        50.500          43.500
 102677100.436 6  79859992.305 6  19201129.387                    19201136.166
        38.500          36.500
 107037129.394 6  83251151.742 7  20079888.353                    20079899.648
        41.500          42.250
 115566672.371 6  89885230.491 7  21596392.258                    21596401.049
        37.750          42.000
 123979996.435 5  96428925.565 5  23201162.349                    23201174.481
        32.500          34.500
 112424493.966 6  87441316.494 6  21016568.818                    21016579.027
        41.250          38.250
 17  1 13  0 24  0.0000000  0 15G24G28G06G30G02G19R13G15G13G17R24R14
                                R17R15R23
 121121954.455 6  94380759.03144  23048737.365    23048737.378    23048742.011
        41.750          28.000
 116001013.624 7  90390409.02944  22074262.897    22074262.187    22074262.928
        45.250          29.000
 115357651.580 7  89889112.87545  21951828.524    21951828.729    21951832.866
        46.000          34.500
 124207343.528 5  96784978.42641  23635872.557    23635872.379    23635879.385
        34.250          11.500
 128181557.851 5  99881719.64142  24392133.251    24392132.415    24392135.075
        33.750          12.750
 108599968.500 8  84623354.45947  20665883.653    20665882.710    20665881.677
        51.250          46.000
 106727397.572 6  83010228.552 7  19986612.282                    19986620.233
        39.250          45.500
 123426595.129 7  96176561.63044  23487300.892    23487300.914    23487302.555
        42.000          26.250
 120777995.900 7  94112694.82643  22983290.359    22983290.011    22983291.504
        42.000          21.750
 106931618.668 8  83323342.65347  20348408.433    20348408.317    20348408.384
        50.750          43.500
 102674877.926 6  79858263.674 6  19200713.593                    19200720.113
        38.500          36.250
 106966189.589 7  83195976.356 7  20066580.719                    20066591.424
        42.250          42.250
 115459215.323 6  89801652.829 7  21576312.035                    21576320.271
        38.500          43.500
 123867331.675 5  96341297.409 5  23180080.478                    23180090.333
        31.750          35.250
 112524220.436 6  87518881.505 6  21035211.473                    21035221.485
        41.250          38.000
 17  1 13  0 24 30.0000000  0 15G24G28G06G30G02G19R13G15G13G17R24R14
                                R17R15R23
 121030224.025 6  94309280.80744  23031282.176    23031282.216    23031285.910
        41.750          27.500
 116068182.016 7  90442748.00544  22087044.091    22087043.389    22087044.663
        44.500          29.000
 115272105.010 7  89822453.23645  21935549.403    21935549.604    21935553.919
        46.000          33.500
 124308375.790 4  96863704.83441  23655095.714    23655095.464    23655104.188
        29.500          11.000
 128062797.557 5  99789179.22842  24369535.853    24369535.102    24369535.924
        35.750          14.000
 108606502.737 8  84628446.08047  20667127.207    20667126.264    20667125.137
        51.000          46.000
 106766782.870 6  83040861.561 7  19993988.228                    19993996.121
        39.750          45.750
 123464557.795 6  96206142.91844  23494524.776    23494524.793    23494525.885
        41.000          25.000
 120855189.031 6  94172845.25043  22997979.840    22997979.514    22997980.372
        41.500          20.250
 106974541.975 8  83356789.38447  20356576.192    20356576.072    20356576.474
        50.250          43.250
 102673385.796 6  79857103.153 6  19200434.452                    19200441.442
        38.250          37.000
 106895574.588 6  83141053.602 7  20053333.564                    20053344.167
        41.750          42.000
 115352172.521 6  89718397.350 7  21556308.880                    21556317.183
        40.500          43.250
 123754625.475 5  96253637.091 5  23158989.328                    23158999.451
        31.750          35.500
 112624306.580 6  87596726.259 6  21053922.039                    21053931.782
        41.750          38.250
 17  1 13  0 25  0.0000000  0 15G24G28G06G30G02G19R13G15G13G17R24R14
                                R17R15R23
 120938738.955 6  94237993.76544  23013873.094    23013873.138    23013876.721
        41.750          28.000
 116135508.767 7  90495210.38444  22099857.011    22099856.305    22099856.470
        45.750          29.750
 115186883.855 7  89756047.14945  21919332.831    21919333.050    21919336.771
        46.000          34.750
 124409593.416 5  96942575.56442  23674359.893    23674359.759    23674365.308
        35.250          12.000
 127943999.925 6  99696609.71142  24346928.755    24346928.143    24346929.314
        37.500          14.250
 108613430.780 8  84633844.55547  20668445.419    20668444.480    20668443.554
        51.250          46.000
 106806714.303 6  83071919.323 7  20001466.413                    20001474.051
        39.500          46.000
 123502907.755 7  96236025.97444  23501822.531    23501822.544    23501823.913
        42.250          25.750
 120932620.624 6  94233181.55343  23012713.005    23012712.670    23012715.102
        39.500          19.500
 107017873.260 8  83390554.01347  20364821.886    20364821.770    20364822.155
        50.500          43.250
 102672623.278 6  79856510.099 6  19200292.143                    19200298.730
        38.250          36.250
 106825287.679 7  83086386.025 6  20040148.019                    20040158.599
        42.250          41.750
 115245546.833 6  89635466.326 6  21536382.542                    21536390.435
        39.250          40.750
 123641880.800 5  96165946.883 5  23137887.781                    23137899.966
        31.250          34.750
 112724748.541 6  87674847.770 6  21072697.939                    21072707.669
        41.500          37.500
 17  1 13  0 25 30.0000000  0 15G24G28G06G30G02G19R13G15G13G17R24R14
                                R17R15R23
 120847501.329 6  94166899.54844  22996511.089    22996511.173    22996514.962
        41.750          27.500
 116202993.471 7  90547795.85444  22112698.236    22112697.490    22112698.111
        44.250          28.500
 115101990.669 7  89689896.62945  21903177.458    21903177.672    21903181.992
        44.750          34.500
 124510994.113 5  97021589.00742  23693656.586    23693656.296    23693661.115
        34.250          12.500
 127825167.230 6  99604012.92742  24324314.253    24324313.601    24324315.939
        37.250          12.250
 108620751.434 8  84639548.96747  20669838.311    20669837.368    20669836.496
        51.000          45.750
 106847192.292 6  83103402.174 7  20009045.751                    20009053.970
        39.000          45.500
 123541642.511 6  96266208.84344  23509192.825    23509192.883    23509195.369
        40.500          25.000
 121010287.204 6  94293700.93243  23027493.998    23027493.685    23027494.843
        40.000          19.500
 107061610.468 8  83424634.95247  20373145.060    20373144.944    20373144.899
        50.500          43.500
 102672588.649 6  79856483.166 5  19200285.744                    19200292.125
        38.750          35.500
 106755332.486 7  83031976.447 7  20027024.626                    20027034.919
        42.000          42.000
 115139340.554 6  89552861.448 7  21516535.827                    21516544.189
        39.000          42.250
 123529099.690 5  96078228.309 5  23116784.665                    23116795.768
        31.750          34.250
 112825542.298 6  87753242.904 6  21091540.529                    21091550.805
        41.000          38.250
 17  1 13  0 26  0.0000000  0 15G24G28G06G30G02G19R13G15G13G17R24R14
                                R17R15R23
 120756514.555 7  94096000.80344  22979197.083    22979197.176    22979200.544
        42.250          28.250
 116270636.733 7  90600504.86144  22125570.298    22125569.561    22125569.954
        44.750          28.500
 115017428.897 7  89624004.38645  21887086.731    21887086.950    21887090.242
        47.000          35.000
 124612576.534 5                  23712988.273
        33.750
 127706302.934 5  99511391.48042  24301695.454    24301694.806    24301696.384
        34.500          13.000
 108628464.195 8  84645558.91447  20671306.104    20671305.165    20671304.239
        51.250          46.000
 106888217.474 6  83135310.651 7  20016728.696                    20016736.696
        39.500          45.250
 123580760.443 7  96296690.30644  23516637.893    23516637.955    23516639.244
        43.000          25.500
 121088185.843 6  94354401.12242  23042316.635    23042316.430    23042318.424
        38.750          17.500
 107105752.116 8  83459031.02847  20381544.708    20381544.592    20381544.883
        50.500          43.250
 102673281.243 6  79857021.861 6  19200415.216                    19200421.834
        38.750          36.750
 106685712.297 7  82977827.428 6  20013963.870                    20013974.298
        42.000          41.750
 115033556.971 6  89470585.371 7  21496767.848                    21496775.986
        39.750          43.250
 123416284.687 5  95990483.317 5  23095670.991                    23095683.682
        32.250          34.250
 112926683.925 6  87831908.586 6  21110447.609                    21110458.569
        41.250          38.000
 17  1 13  0 26 30.0000000  0 15G24G28G06G30G02G19R13G15G13G17R24R14
                                R17R15R23
 120665780.015 7  94025298.59344  22961931.205    22961931.289    22961934.402
        43.000          28.250
 116338437.413 7  90653336.53844  22138472.007    22138471.270    22138472.588
        44.500          28.750
 114933200.637 7  89558371.98745  21871058.719    21871058.929    21871062.296
        46.750          35.000
 124714338.011 5  97180032.8034   23732353.542    23732352.992    23732356.207
        32.500           5.750
 127587408.739 6  99418746.68642  24279070.716    24279070.023    24279071.507
        36.250          15.000
 108636566.913 8  84651872.72647  20672848.120    20672847.177    20672846.189
        50.750          46.000
 106929789.234 6  83167644.221 7  20024513.675                    20024521.952
        39.250          45.250
 123620258.165 7  96327467.73444  23524153.658    23524153.716    23524155.496
        42.750          25.500
 121166313.270 6  94415279.56143  23057184.659    23057184.440    23057185.563
        39.000          18.250
 107150294.834 8  83493739.63547  20390020.866    20390020.746    20390021.040
        50.500          43.000
 102674698.843 6  79858124.456 6  19200680.642                    19200686.907
        38.750          36.750
 106616429.127 7  82923940.536 7  20000966.357                    20000977.134
        42.500          42.000
 114928197.804 6  89388639.445 6  21477078.274                    21477086.609
        40.250          41.750
 123303437.534 5  95902713.282 5  23074555.203                    23074563.945
        32.750          34.000
 113028168.449 6  87910840.943 6  21129419.555                    21129429.423
        41.500          38.250
 17  1 13  0 27  0.0000000  0 15G24G28G06G02G19R13G15G12G13G17R24R14
                                R17R15R23
 120575300.864 7  93954795.38644  22944713.464    22944713.548    22944716.558
        42.500          28.000
 116406395.850 7  90706291.12444  22151404.105    22151403.390    22151404.731
        44.250          28.750
 114849309.205 7  89493002.07245  21855094.566    21855094.780    21855098.376
        47.000          35.000
 127468487.534 5  99326080.92841  24256440.800    24256440.009    24256441.319
        35.250          11.750
 108645058.120 8  84658489.25347  20674463.982    20674463.039    20674461.880
        50.750          46.250
 106971908.663 6  83200403.754 7  20032401.340                    20032409.755
        39.250          45.500
 123660133.646 7  96358539.56144  23531742.614    23531742.658    23531743.209
        43.250          24.500
 131378633.738 5                  25000523.285
        30.500
 121244666.488 6  94476334.02542  23072094.069    23072093.850    23072095.745
        37.750          17.500
 107195236.836 8  83528759.37047  20398573.085    20398572.969    20398573.331
        50.500          43.250
 102676840.310 6  79859790.064 6  19201081.049                    19201087.113
        38.750          36.250
 106547487.498 7  82870319.270 7  19988033.114                    19988043.721
        42.000          42.250
 114823266.270 6  89307025.944 6  21457469.780                    21457477.498
        39.250          41.250
 123190561.306 5  95814920.677 6  23053431.937                    23053441.587
        33.750          36.750
 113129992.872 6  87990037.693 6  21148454.666                    21148464.414
        41.250          37.000
 17  1 13  0 27 30.0000000  0 14G24G28G06G02G19R13G15G13G17R24R14R17
                                R15R23
 120485079.959 7  93884493.41744  22927544.942    22927545.000    22927548.228
        42.500          28.750
 116474512.079 7  90759368.70644  22164366.315    22164365.600    22164366.686
        44.500          28.500
 114765757.846 7  89427897.12245  21839195.005    21839195.206    21839198.878
        46.750          35.750
 127349542.385 6  99233396.49442  24233805.979    24233805.184    24233806.645
        37.250          14.250
 108653937.056 8  84665407.91547  20676153.378    20676152.435    20676151.518
        51.250          46.000
 107014575.738 6  83233589.264 7  20040391.293                    20040400.017
        39.250          46.000
 123700385.039 7  96389904.28444  23539401.739    23539401.761    23539402.839
        42.250          24.750
 121323242.599 6  94537562.10742  23087048.646    23087048.392    23087049.146
        38.750          16.500
 107240576.303 8  83564088.82047  20407201.018    20407200.902    20407201.108
        50.500          43.250
 102679705.109 6  79862018.242 6  19201616.039                    19201622.585
        38.500          36.500
 106478890.558 7  82816966.120 7  19975164.710                    19975175.227
        42.250          42.000
 114718765.221 6  89225747.447 7  21437940.103                    21437949.980
        39.500          42.250
 123077658.401 5  95727107.385 6  23032302.926                    23032313.846
        34.250          37.500
 113232153.119 6  88069495.649 6  21167551.835                    21167562.218
        40.000          38.250
 17  1 13  0 28  0.0000000  0 15G24G28G06G30G02G19R13G15G13G17R24R14
                                R17R15R23
 120395119.945 7  93814394.74244  22910425.737    22910425.772    22910429.270
        42.500          28.750
 116542785.703 7  90812568.88744  22177358.543    22177357.815    22177358.748
        44.000          28.000
 114682549.278 7  89363059.28946  21823360.905    21823361.115    21823365.238
        46.750          36.000
 125020681.149 4  97418737.6184   23790644.420    23790644.121    23790649.893
        29.750           4.250
 127230576.047 6  99140695.56842  24211168.090    24211167.357    24211167.799
        36.500          12.750
 108663202.144 8  84672627.46147  20677916.615    20677915.672    20677914.724
        51.000          46.000
 107057790.969 6  83267201.094 7  20048484.729                    20048492.648
        39.500          45.500
 123741009.463 7  96421559.63144  23547132.606    23547132.628    23547133.881
        42.000          25.250
 121402038.353 6  94598961.37842  23102042.618    23102042.136    23102043.588
        39.750          14.000
 107286310.849 8  83599726.11047  20415904.182    20415904.066    20415904.196
        50.750          43.250
 102683291.084 6  79864807.329 6  19202286.943                    19202293.552
        38.750          36.250
 106410641.702 7  82763883.689 7  19962361.109                    19962371.514
        42.250          42.000
 114614697.110 6  89144805.568 6  21418493.709                    21418500.877
        40.750          40.000
 122964731.300 5  95639275.274 6  23011170.659                    23011182.071
        35.500          37.000
 113334645.130 6  88149211.605 6  21186712.840                    21186721.761
        40.750          36.750
 17  1 13  0 28 30.0000000  0 15G24G28G06G30G02G19R13G15G13G17R24R14
                                R17R15R23
 120305423.180 7  93744501.19644  22893356.744    22893356.797    22893360.738
        42.000          28.500
 116611216.302 7  90865891.40144  22190379.885    22190379.179    22190380.721
        43.000          27.250
 114599686.015 7  89298490.50445  21807592.560    21807592.770    21807596.732
        46.000          35.000
 125123144.960 4                  23810144.106
        28.500
 127111590.678 5  99047979.86741  24188526.807    24188526.199    24188525.054
        33.250           8.000
 108672851.781 8  84680146.66147  20679752.646    20679751.703    20679750.902
        50.750          45.750
 107101554.250 6  83301239.178 7  20056680.050                    20056687.929
        39.500          45.500
 123782004.304 6  96453503.61743  23554933.186    23554933.208    23554934.827
        40.500          23.750
 121481050.560 6  94660529.31742  23117077.179    23117076.692    23117078.923
        38.000          14.750
 107332437.961 8  83635669.30547  20424681.731    20424681.611    20424681.968
        50.250          43.000
 102687596.459 6  79868155.969 6  19203092.059                    19203098.574
        39.000          36.250
 106342743.524 7  82711073.996 6  19949623.853                    19949633.941
        42.000          41.750
 114511064.033 6  89064202.069 7  21399126.562                    21399134.736
        36.750          42.000
 122851782.046 5  95551425.854 6  22990034.672                    22990044.796
        35.250          38.000
 113437464.409 6  88229182.129 6  21205932.844                    21205943.478
        40.750          37.000
 17  1 13  0 29  0.0000000  0 15G24G28G06G30G02G19R13G15G13G17R24R14
                                R17R15R23
 120215992.414 7  93674814.90844  22876339.310    22876339.399    22876342.659
        43.250          29.250
 116679804.403 7  90919336.64344  22203432.033    22203431.331    22203432.708
        43.500          28.000
 114517171.292 7  89234193.35945  21791890.609    21791890.823    21791894.835
        46.250          35.750


 126992589.422 5  98955251.60741  24165880.588    24165879.810    24165879.684
        35.000           8.500
 108682884.906 8  84687964.68047  20681661.863    20681660.920    20681660.115
        51.000          46.000
 107145866.228 6  83335704.032 7  20064977.844                    20064986.510
        38.250          45.500
 123823367.520 6  96485734.66744  23562804.235    23562804.248    23562805.938
        41.750          25.000
 121560276.227 6  94722263.54542  23132153.357    23132152.919    23132155.280
        38.000          15.750
 107378956.024 8  83671917.13747  20433533.760    20433533.640    20433533.988
        50.250          43.000
 102692620.388 6  79872063.470 6  19204032.021                    19204038.147
        39.000          36.750
 106275200.084 7  82658540.236 7  19936952.598                    19936963.312
        42.500          42.500
 114407869.185 6  88983939.503 7  21379843.352                    21379851.342
        40.250          42.750
 122738813.479 5  95463561.449 6  22968891.973                    22968903.412
        33.000          37.250
 113540607.620 6  88309404.593 6  21225214.695                    21225225.155
        41.000          37.750
 17  1 13  0 29 30.0000000  0 14G24G28G06G02G19R13G15G13G17R24R14R17
                                R15R23
 120126830.119 7  93605337.83044  22859371.697    22859371.773    22859375.753
        43.000          28.750
 116748549.499 7  90972904.23944  22216513.344    22216512.651    22216514.681
        42.500          27.500
 114435007.958 7  89170169.99745  21776255.375    21776255.580    21776259.614
        46.500          35.250
 126873574.813 6  98862513.05341  24143232.709    24143231.940    24143231.672
        36.000          10.000
 108693300.132 8  84696080.44347  20683644.173    20683643.221    20683642.036
        51.500          46.250
 107190726.740 6  83370595.521 7  20073379.325                    20073387.401
        39.000          45.500
 123865096.786 6  96518250.95244  23570745.090    23570745.112    23570746.793
        41.000          24.000
 121639712.466 6  94784161.90042  23147269.784    23147269.476    23147271.050
        36.000          13.000
 107425862.575 8  83708467.68247  20442459.932    20442459.812    20442460.013
        50.750          42.750
 102698360.953 6  79876528.346 6  19205105.541                    19205111.712
        38.750          36.500
 106208014.261 7  82606284.598 7  19924348.847                    19924359.749
        42.250          42.250
 114305114.908 6  88904019.485 6  21360640.004                    21360647.986
        37.250          40.000
 122625828.237 5  95375684.105 6  22947749.484                    22947759.944
        33.500          38.750
 113644070.717 6  88389875.871 6  21244556.028                    21244565.732
        40.500          37.500
 17  1 13  0 30  0.0000000  0 15G24G28G06G02G19R13G15G12G13G17R24R14
                                R17R15R23
 120037938.838 7  93536071.93344  22842456.435    22842456.493    22842460.155
        43.250          29.250
 116817451.073 7  91026593.74244  22229625.997    22229625.340    22229625.836
        44.750          27.250
 114353198.578 7  89106422.45545  21760687.470    21760687.675    21760691.754
        46.250          35.250
 126754549.246 6  98769765.86642  24120582.273    24120581.513    24120581.745
        37.250          13.750
 108704095.872 8  84704492.70847  20685698.169    20685697.222    20685696.465
        51.000          45.750
 107236136.186 6  83405913.970 7  20081882.316                    20081890.933
        39.250          45.000
 123907188.992 7  96551050.06444  23578755.474    23578755.527    23578756.323
        42.250          24.250
 130940019.070 5                  24917060.159
        31.750
 121719355.768 5  94846221.56842  23162425.101    23162424.838    23162426.783
        35.750          12.500
 107473154.803 8  83745318.76547  20451459.176    20451459.060    20451459.489
        50.750          42.750
 102704816.456 6  79881549.306 6  19206312.342                    19206319.130
        38.750          36.500
 106141189.213 7  82554309.579 7  19911813.118                    19911822.916
        42.750          42.250
 114202803.533 6  88824444.037 7  21341521.899                    21341529.720
        40.750          42.750
 122512828.212 5  95287795.316 6  22926602.023                    22926613.533
        33.250          37.250
 113747849.225 6  88470592.505 6  21263956.739                    21263966.635
        40.750          37.000
 17  1 13  0 30 30.0000000  0 15G24G28G06G02G19R13G15G12G13G17R24R14
                                R17R15R23
 119949321.825 7  93467019.73844  22825593.419    22825593.472    22825596.745
        43.500          29.750
 116886509.534 7  91080405.50944  22242767.152    22242766.491    22242767.036
        43.500          27.250
 114271746.503 7  89042953.33446  21745188.044    21745188.249    21745191.858
        47.500          36.500
 126635516.022 6  98677012.86142  24097932.499    24097931.744    24097930.495
        39.000          14.000
 108715271.343 8  84713200.86247  20687825.136    20687824.189    20687823.133
        51.000          45.500
 107282094.638 6  83441659.422 7  20090489.506                    20090497.577
        39.500          45.500
 123949642.457 6  96584130.64343  23586833.590    23586833.674    23586835.311
        41.000          23.250
 130866761.979 5                  24903118.910
        32.000
 121799203.204 6  94908440.29042  23177619.366    23177619.165    23177621.173
        37.250          15.000
 107520831.407 8  83782469.34947  20460531.910    20460531.785    20460531.923
        50.750          42.750
 102711985.790 6  79887125.467 6  19207652.921                    19207659.674
        38.500          36.000
 106074728.689 7  82502618.085 7  19899344.965                    19899355.326
        42.250          42.250
 114100938.134 6  88745215.432 7  21322485.210                    21322493.361
        38.500          42.500
 122399816.628 5  95199897.437 6  22905454.356                    22905464.883
        31.500          37.500
 113851939.678 6  88551551.696 6  21283414.545                    21283425.214
        39.250          37.500
 17  1 13  0 31  0.0000000  0 15G24G28G06G02G19R13G15G12G13G17R24R14
                                R17R15R23
 119860981.189 7  93398182.90544  22808782.760    22808782.795    22808786.280
        44.000          29.750
 116955724.658 7  91134339.31344  22255938.464    22255937.798    22255938.151
        44.750          27.250
 114190654.409 7  88979764.71146  21729755.826    21729756.045    21729760.428
        46.500          36.000
 126516477.648 6  98584255.75443  24075279.742    24075278.955    24075278.311
        39.250          18.000
 108726824.961 8  84722203.67947  20690023.256    20690022.309    20690021.651
        51.000          45.750
 107328602.335 6  83477832.049 7  20099199.234                    20099207.055
        39.000          45.000
 123992454.459 6  96617490.64143  23594981.074    23594981.150    23594981.816
        41.500          23.250
 130793459.714 5                  24889170.766
        32.750
 121879252.059 6  94970815.96242  23192852.266    23192852.088    23192853.715
        36.250          14.000
 107568889.717 8  83819917.37647  20469677.143    20469677.023    20469677.035
        51.000          42.750
 102719866.922 6  79893255.232 6  19209126.241                    19209133.757
        38.750          37.000
 106008635.755 7  82451212.472 7  19886946.094                    19886956.174
        42.500          42.500
 113999520.862 6  88666335.339 6  21303533.387                    21303540.049
        39.750          41.250
 122286796.016 5  95111992.571 6  22884302.070                    22884314.220
        32.000          37.000
 113956338.034 6  88632750.373 6  21302930.919                    21302940.779
        40.000          37.000
 17  1 13  0 31 30.0000000  0 15G24G28G06G02G19R13G15G12G13G17R24R14
                                R17R15R23
 119772919.720 7  93329563.62345  22792025.489    22792025.511    22792028.615
        43.750          30.250
 117025096.339 7  91188395.14644  22269139.253    22269138.592    22269139.396
        44.500          28.000
 114109925.136 7  88916858.80646  21714394.493    21714394.712    21714398.410
        47.250          36.750
 126397436.884 6  98491496.74242  24052626.529    24052625.729    24052626.082
        37.750          17.250
 108738755.033 8  84731499.83047  20692293.776    20692292.829    20692291.898
        51.000          45.500
 107375659.394 6  83514431.985 7  20108011.080                    20108019.214
        39.250          45.000
 124035622.458 7  96651128.01544  23603196.035    23603196.052    23603196.849
        42.000          25.250
 130720112.133 5 101859842.97941  24875211.809    24875211.264    24875214.443
        32.500          10.250
 121959499.036 6  95033346.04742  23208123.649    23208123.381    23208124.185
        39.000          16.000
 107617327.681 8  83857661.23947  20478894.476    20478894.356    20478894.583
        50.500          43.000
 102728458.662 6  79899937.690 6  19210733.709                    19210740.148
        38.500          37.000
 105942913.774 7  82400095.398 7  19874616.396                    19874627.458
        42.250          42.500
 113898554.414 6  88587805.913 7  21284664.740                    21284673.527
        38.500          44.000
 122173768.383 5  95024082.277 6  22863150.884                    22863163.047
        32.250          37.000
 114061040.300 6  88714185.459 6  21322504.566                    21322513.916
        40.250          37.000
 17  1 13  0 32  0.0000000  0 15G24G28G06G02G19R13G15G12G13G17R24R14
                                R17R15R23
 119685140.402 7  93261164.19045  22775320.880    22775320.884    22775324.569
        43.000          30.250
 117094624.446 7  91242572.87044  22282370.780    22282370.119    22282370.462
        44.000          28.000
 114029561.495 7  88854237.81846  21699101.329    21699101.539    21699105.483
        47.000          36.250
 126278396.759 6  98398738.24842  24029973.253    24029972.435    24029973.459
        38.000          17.500
 108751060.322 8  84741088.36847  20694635.386    20694634.443    20694633.459
        51.000          45.000
 107423265.738 6  83551459.129 7  20116925.837                    20116934.404
        39.250          45.250
 124079144.218 6  96685040.99844  23611477.493    23611477.489    23611478.969
        40.500          24.750
 130646719.582 5 101802654.03341  24861245.344    24861245.157    24861248.689
        30.750           8.000
 122039940.881 6  95096027.99442  23223430.849    23223430.568    23223431.828
        39.000          16.000
 107666142.995 8  83895699.13647  20488183.932    20488183.812    20488183.919
        50.250          42.750
 102737758.718 6  79907171.069 6  19212472.884                    19212479.403
        38.250          36.500
 105877566.028 7  82349269.365 7  19862357.290                    19862368.094
        42.000          42.250
 113798041.095 6  88509629.015 7  21265882.369                    21265889.403
        41.250          42.000
 122060736.758 5  94936168.843 6  22841998.598                    22842011.011
        32.000          37.750
 114166042.492 6  88795853.796 6  21342133.357                    21342143.673
        40.250          37.000
 17  1 13  0 32 30.0000000  0 15G24G28G06G02G19R13G15G12G13G17R24R14
                                R17R15R23
 119597645.109 7  93192986.07745  22758671.308    22758671.286    22758674.518
        43.000          30.250
 117164308.454 7  91296872.06044  22295630.589    22295629.919    22295631.189
        43.750          27.750
 113949566.098 8  88791903.75946  21683879.197    21683879.402    21683882.881
        48.000          37.500
 126159359.611 6  98305982.08743  24007321.203    24007320.439    24007321.556
        38.000          18.750
 108763739.549 8  84750968.28647  20697048.309    20697047.362    20697046.320
        51.000          45.500
 107471421.486 6  83588913.570 7  20125944.988                    20125952.527
        39.250          45.250
 124123016.559 6  96719227.18744  23619825.963    23619825.963    23619827.560
        41.000          25.500
 130573281.381 4 101745429.50241  24847267.844    24847267.719    24847273.737
        28.250           6.750
 122120574.471 6  95158859.28243  23238776.228    23238775.942    23238776.192
        41.250          18.250
 107715333.197 8  83934029.15847  20497544.295    20497544.175    20497544.402
        50.250          42.500
 102747765.448 6  79914954.080 6  19214343.663                    19214350.397
        38.750          36.000
 105812595.368 7  82298736.653 7  19850169.566                    19850179.797
        42.750          42.500
 113697983.321 6  88431806.222 7  21247183.895                    21247190.974
        40.000          42.750
 121947703.266 5  94848253.965 6  22820846.357                    22820857.048
        32.250          37.000
 114271340.643 6  88877752.347 6  21361817.730                    21361828.457
        40.000          37.750
 17  1 13  0 33  0.0000000  0 15G24G28G06G02G19R13G15G12G13G17R24R14
                                R17R15R23
 119510437.286 7  93125031.95645  22742075.878    22742075.878    22742079.687
        42.750          30.250
 117234149.030 7  91351293.25744  22308920.775    22308920.105    22308921.450
        44.750          27.500
 113869942.405 8  88729859.34946  21668726.907    21668727.121    21668731.070
        48.250          37.750
 126040328.770 6  98213230.88043  23984671.316    23984670.583    23984670.198
        40.000          20.000
 108776791.681 8  84761138.78247  20699531.858    20699530.911    20699530.096
        50.750          45.500
 107520126.916 6  83626795.561 7  20135065.533                    20135073.658
        40.000          45.500
 124167238.118 6  96753685.47644  23628241.145    23628241.149    23628242.635
        40.750          25.000
 130499798.383 5 101688170.12241  24833287.383    24833287.155    24833290.370
        32.000           6.000
 122201397.520 6  95221838.25443  23254154.661    23254154.335    23254156.289
        39.500          18.000
 107764896.890 8  83972650.21147  20506975.971    20506975.851    20506976.060
        50.500          42.500
 102758477.851 6  79923285.950 6  19216347.361                    19216353.926
        38.500          36.000
 105748005.778 7  82248500.309 7  19838052.488                    19838062.800
        42.500          42.250
 113598384.050 6  88354340.250 7  21228570.958                    21228579.571
        40.500          44.000
 121834671.110 5  94760340.108 6  22799695.001                    22799704.565
        34.500          36.000
 114376931.281 6  88959878.365 6  21381556.397                    21381566.821
        40.000          38.000
 17  1 13  0 33 30.0000000  0 15G24G28G06G02G19R13G15G12G13G17R24R14
                                R17R15R23
 119423518.888 7  93057303.36245  22725536.012    22725536.043    22725539.607
        43.500          30.500
 117304145.024 7  91405835.56644  22322240.853    22322240.178    22322240.661
        45.000          27.500
 113790692.460 7  88668106.16346  21653646.096    21653646.310    21653650.138
        47.250          37.000
 125921306.288 6  98120486.12943  23962021.707    23962020.988    23962020.983
        39.000          20.750
 108790214.545 8  84771598.15947  20702086.339    20702085.392    20702084.251
        51.000          45.750
 107569381.407 6  83665104.599 7  20144289.068                    20144297.336
        39.000          45.500
 124211805.452 7  96788413.23044  23636721.542    23636721.591    23636723.380
        42.000          26.750
 130426269.503 5 101630874.94641  24819296.959    24819296.736    24819297.773
        32.500           7.750
 122282405.604 6  95284961.38543  23269570.159    23269569.873    23269571.997
        39.750          18.750
 107814830.830 8  84011559.77447  20516478.285    20516478.169    20516478.195
        50.750          42.750
 102769892.892 6  79932164.331 6  19218482.118                    19218488.642
        38.750          36.500
 105683800.103 7  82198562.574 7  19826008.034                    19826018.135
        42.250          42.500
 113499245.073 6  88277232.149 7  21210044.096                    21210052.011
        39.500          42.000
 121721642.524 5  94672429.003 5  22778542.026                    22778552.391
        34.000          35.000
 114482809.777 6  89042228.274 6  21401349.561                    21401360.109
        40.250          37.500
 17  1 13  0 34  0.0000000  0 16G30G24G28G06G02G19R13G15G12G13G17R24
                                R14R17R15R23
 126261042.234 4                  24026676.933
        28.500
 119336893.096 7  92989802.78345  22709052.860    22709052.882    22709055.427
        44.500          30.750
 117374296.938 7  91460499.37344  22335589.760    22335589.090    22335590.560
        43.500          27.000
 113711819.484 8  88606646.73246  21638636.903    21638637.117    21638641.097
        48.000          37.250
 125802295.339 6  98027750.43343  23939374.616    23939373.919    23939374.124
        39.500          20.000
 108804007.340 8  84782345.79947  20704710.734    20704709.782    20704709.013
        51.000          45.250
 107619185.746 6  83703841.301 7  20153615.813                    20153623.853
        39.250          45.000
 124256716.116 7  96823408.53744  23645267.622    23645267.689    23645269.724
        42.500          26.250
 130352695.313 5 101573544.43741  24805295.124    24805294.780    24805297.100
        31.750           8.500
 122363596.431 5  95348226.95142  23285019.709    23285019.401    23285021.708
        35.750          13.250
 107865133.281 8  84050756.47947  20526050.294    20526050.174    20526050.446
        50.500          42.500
 102782009.564 6  79941588.410 6  19220748.305                    19220754.244
        38.500          36.500
 105619981.980 7  82148926.269 7  19814035.148                    19814045.858
        42.500          42.500
 113400569.158 6  88200484.282 7  21191604.149                    21191612.913
        41.250          44.000
 121608620.522 5  94584523.036 5  22757392.284                    22757401.750
        34.500          35.750
 114588972.519 6  89124799.246 6  21421195.610                    21421205.957
        39.750          36.500
 17  1 13  0 34 30.0000000  0 15G24G28G06G02G19R13G15G12G13G17R24R14
                                R17R15R23
 119250562.137 7  92922531.93445  22692623.274    22692623.243    22692626.869
        43.000          30.500
 117444604.621 7  91515284.53644  22348969.440    22348968.756    22348969.650
        44.500          27.000
 113633326.169 7  88545483.13546  21623700.194    21623700.413    21623704.380
        47.250          37.000
 125683298.670 6  97935025.77942  23916730.333    23916729.694    23916729.939
        38.250          17.250
 108818168.272 8  84793380.29347  20707405.589    20707404.633    20707403.867
        51.000          45.750
 107669539.407 6  83743005.232 7  20163045.848                    20163053.561
        40.250          45.000
 124301967.799 7  96858669.54744  23653879.645    23653879.680    23653881.170
        43.000          26.500
 130279075.523 5 101516178.4314   24791286.908    24791286.488    24791287.748
        30.500           5.000
 122444967.073 6  95411632.55542  23300504.518    23300504.268    23300506.418
        38.000          14.750
 107915802.081 8  84090238.65747  20535692.319    20535692.199    20535692.485
        50.250          42.500
 102794826.165 6  79951556.884 6  19223143.485                    19223151.445
        38.750          36.250
 105556554.591 7  82099593.842 7  19802136.773                    19802147.139
        43.000          42.750
 113302358.762 6  88124098.415 7  21173251.438                    21173259.344
        39.250          42.500
 121495607.850 5  94496624.401 5  22736242.887                    22736253.247
        35.000          35.500
 114695415.676 6  89207588.316 6  21441094.858                    21441103.949
        39.750          36.750
 17  1 13  0 35  0.0000000  0 15G24G28G06G02G19R13G15G12G13G17R24R14
                                R17R15R23
 119164528.841 7  92855493.01745  22676252.234    22676252.212    22676255.302
        44.000          30.250
 117515067.842 7  91570190.91444  22362378.262    22362377.583    22362378.437
        44.750          27.750
 113555215.319 8  88484617.56846  21608836.669    21608836.879    21608840.313
        48.000          37.000
 125564319.057 6  97842314.48942  23894088.375    23894087.785    23894088.232
        36.000          14.500
 108832695.985 8  84804700.59347  20710170.178    20710169.226    20710168.296
        50.750          45.500
 107720442.235 6  83782596.307 7  20172578.623                    20172586.023
        40.250          45.500
 124347557.881 7  96894194.25744  23662554.857    23662554.853    23662555.867
        42.000          24.500
 130205410.449 5 101458777.1944   24777269.596    24777269.167    24777269.757
        31.500           4.000
 122526513.893 6  95475175.50142  23316023.539    23316023.249    23316024.187
        40.000          16.500
 107966834.768 8  84130004.39247  20545403.610    20545403.485    20545403.673
        50.500          42.250
 102808340.066 6  79962067.699 6  19225672.054                    19225678.283
        39.000          36.500
 105493521.316 7  82050567.986 7  19790311.161                    19790322.192
        42.250          42.750
 113204615.971 6  88048076.274 7  21154985.651                    21154993.602
        40.750          43.250
 121382606.816 5  94408734.703 5  22715096.816                    22715106.810
        35.500          35.500
 114802135.591 6  89290592.658 6  21461044.264                    21461054.289
        39.000          36.250
 17  1 13  0 35 30.0000000  0 15G24G28G06G02G19R13G15G12G13G17R24R14
                                R17R15R23
 119078795.233 7  92788687.64545  22659936.983    22659936.991    22659940.681
        43.250          30.500
 117585686.307 7  91625218.25544  22375815.877    22375815.198    22375816.825
        43.250          27.000
 113477489.484 7  88424052.01146  21594045.418    21594045.628    21594049.353
        47.750          37.750
 125445358.959 6  97749618.30242  23871451.568    23871451.045    23871450.822
        39.250          17.250
 108847588.987 8  84816305.53547  20713004.087    20713003.135    20713002.276
        51.000          45.250
 107771893.902 6  83822614.247 7  20182212.635                    20182221.198
        40.000          45.000
 124393483.649 7  96929980.56144  23671294.437    23671294.459    23671295.247
        42.250          24.750
 130131699.617 5 101401340.21241  24763240.332    24763239.702    24763243.020
        34.000           8.500
 122608233.775 6  95538853.28642  23331572.113    23331571.814    23331574.778
        36.750          13.500
 108018229.049 8  84170051.87947  20555183.272    20555183.156    20555183.608
        50.250          42.500
 102822549.458 6  79973119.463 6  19228328.980                    19228335.482
        38.750          36.750
 105430885.282 7  82001851.058 7  19778562.187                    19778571.712
        43.250          42.500
 113107343.073 6  87972419.633 7  21136807.531                    21136816.774
        38.000          44.250
 121269619.869 5  94320856.044 6  22693953.455                    22693962.497
        35.250          36.250
 114909127.726 6  89373808.736 6  21481045.572                    21481055.513
        38.750          36.500
 17  1 13  0 36  0.0000000  0 15G24G28G06G02G19R13G15G12G13G17R24R14
                                R17R15R23
 118993364.770 7  92722118.48145  22643680.837    22643680.877    22643683.686
        44.250          30.500
 117656460.295 7  91680366.78444  22389284.310    22389283.640    22389284.449
        44.000          26.750
 113400151.890 8  88363788.97846  21579328.789    21579328.994    21579332.420
        48.250          37.500
 125326421.726 6  97656940.00543  23848819.023    23848818.523    23848818.612
        40.000          18.000
 108862846.597 8  84828194.58547  20715907.664    20715906.712    20715905.728
        51.000          45.500
 107823895.001 6  83863059.553 7  20191951.726                    20191959.467
        39.750          44.750
 124439742.928 6  96966026.74143  23680096.066    23680096.022    23680098.503
        39.750          23.000
 130057943.439 6 101343867.82742  24749206.189    24749205.555    24749207.428
        36.250          12.000
 122690124.172 6  95602663.91542  23347157.077    23347156.751    23347157.376
        38.500          14.500
 108069983.062 8  84210379.66947  20565032.079    20565031.963    20565032.182
        50.500          42.500
 102837453.092 6  79984711.182 6  19231115.780                    19231122.617
        39.000          37.000
 105368650.352 7  81953446.131 7  19766886.463                    19766896.520
        42.500          42.500
 113010542.927 6  87897130.640 6  21118718.870                    21118725.461
        39.250          41.250
 121156650.492 5  94232991.048 6  22672811.883                    22672822.338
        35.750          36.750
 115016388.888 6  89457234.075 6  21501096.498                    21501106.644
        40.250          36.000
 17  1 13  0 36 30.0000000  0 15G24G28G06G02G19R13G15G12G13G17R24R14
                                R17R15R23
 118908240.019 7  92655787.53545  22627481.557    22627481.561    22627485.027
        43.500          30.750
 117727389.373 7  91735636.18144  22402781.899    22402781.211    22402781.711
        44.250          27.000
 113323204.909 7  88303830.32746  21564685.848    21564686.071    21564690.154
        47.250          37.000
 125207509.908 6  97564281.49842  23826190.145    23826189.703    23826190.534
        40.500          16.750
 108878466.088 8  84840365.62547  20718879.817    20718878.865    20718877.975
        50.750          45.500
 107876444.985 6  83903931.744 7  20201792.699                    20201800.444
        39.750          45.250
 124486332.796 6  97002330.46743  23688962.395    23688962.293    23688964.801
        40.250          23.750
 129984141.513 5 101286359.86241  24735161.288    24735160.873    24735163.282
        33.250           9.750
 122772181.585 6  95666604.69243  23362772.926    23362772.631    23362773.257
        40.500          18.750
 108122094.244 8  84250985.78547  20574948.524    20574948.417    20574948.604
        50.500          42.500
 102853048.238 6  79996840.742 6  19234033.228                    19234039.086
        38.750          37.000
 105306818.978 7  81905355.059 7  19755287.472                    19755297.068
        42.750          42.750
 112914217.512 6  87822210.939 7  21100716.998                    21100726.286
        39.500          44.500
 121043701.065 5  94145141.530 6  22651674.528                    22651685.465
        34.000          37.750
 115123914.855 6  89540865.328 6  21521197.989                    21521207.764
        40.250          36.750
 17  1 13  0 37  0.0000000  0 16G30G24G28G06G02G19R13G15G12G13G17R24
                                R14R17R15R23
 126889469.840 5                  24146263.060
        30.750
 118823423.479 7  92589696.74145  22611341.893    22611341.897    22611344.889
        44.250          30.500
 117798473.368 7  91791026.26444  22416309.000    22416308.321    22416308.552
        45.000          26.500
 113246651.317 8  88244178.20446  21550118.505    21550118.719    21550122.131
        48.000          37.250
 125088626.204 6  97471644.86043  23803568.063    23803567.594    23803566.887
        40.750          18.000
 108894446.523 8  84852817.90547  20721921.035    20721920.083    20721918.906
        51.000          45.250
 107929543.708 6  83945230.724 7  20211736.631                    20211744.036
        40.000          45.500
 124533250.685 6  97038889.80843  23697891.653    23697891.560    23697892.891
        41.250          22.250
 129910293.868 5 101228816.34641  24721110.408    24721110.149    24721110.426
        35.750           8.750
 122854402.958 6  95730673.28742  23378418.244    23378417.931    23378419.661
        40.000          17.000
 108174560.440 8  84291868.53547  20584932.253    20584932.142    20584932.620
        50.500          42.250
 102869333.123 6  80009506.775 6  19237077.124                    19237084.229
        38.750          36.750
 105245395.087 7  81857580.921 7  19743763.730                    19743774.368
        42.500          42.750
 112818369.173 6  87747662.258 7  21082806.182                    21082813.874
        41.500          42.500
 120930774.148 5  94057309.535 6  22630541.984                    22630552.702
        34.750          37.750
 115231701.912 6  89624699.679 6  21541347.589                    21541357.436
        39.250          36.250
 17  1 13  0 37 30.0000000  0 16G30G24G28G06G02G19R13G15G12G13G17R24
                                R14R17R15R23
 126994700.049 5                  24166288.774
        31.500
 118738917.394 7  92523847.85745  22595260.664    22595260.695    22595264.357
        43.750          31.000
 117869712.225 7  91846537.04844  22429864.433    22429863.754    22429864.795
        43.000          25.000
 113170493.833 8  88184834.74446  21535626.079    21535626.293    21535629.835
        48.000          36.750
 124969773.591 6  97379032.46743  23780950.127    23780949.658    23780950.055
        39.500          19.500
 108910786.380 8  84865550.26747  20725030.230    20725029.278    20725028.303
        51.000          45.250
 107983190.874 6  83986956.288 7  20221782.605                    20221790.385
        40.000          44.750
 124580494.111 6  97075702.84143  23706882.999    23706882.950    23706882.333
        39.750          20.000
 129836400.421 5 101171237.09341  24707046.457    24707046.100    24707048.787
        34.500          11.250
 122936785.335 6  95794867.27642  23394095.140    23394094.868    23394096.741
        38.500          17.750
 108227379.263 8  84333026.04747  20594983.258    20594983.147    20594983.656
        50.000          42.000
 102886305.581 6  80022707.583 6  19240251.573                    19240258.446
        39.250          36.500
 105184381.656 7  81810126.041 7  19732317.471                    19732328.333
        42.500          42.750
 112723000.075 6  87673486.320 7  21064983.753                    21064992.633
        40.500          44.250
 120817872.583 5  93969497.257 6  22609413.688                    22609423.973
        33.750          38.750
 115339746.144 6  89708734.072 5  21561544.893                    21561554.972
        39.250          35.750
 17  1 13  0 38  0.0000000  0 16G30G24G28G06G02G19R13G15G12G13G17R24
                                R14R17R15R23
 127100065.481 5                  24186337.531
        30.250
 118654724.894 7  92458243.32645  22579239.247    22579239.349    22579242.426
        43.250          30.250
 117941105.946 7  91902168.47044  22443450.760    22443450.045    22443450.729
        43.500          26.000
 113094735.280 8  88125802.12546  21521209.805    21521210.037    21521213.673
        48.000          37.250
 124850954.760 6  97286446.41843  23758340.176    23758339.644    23758339.662
        40.750          19.500
 108927484.448 8  84878561.75047  20728207.747    20728206.795    20728205.891
        51.250          45.250
 108037386.176 6  84029108.177 7  20231932.168                    20231939.153
        39.750          44.750
 124628060.245 6  97112767.30143  23715932.535    23715932.522    23715934.480
        38.500          21.000
 129762461.459 6 101113622.36842  24692977.552    24692977.253    24692978.697
        37.000          13.250
 123019325.513 6  95859184.25242  23409801.347    23409801.052    23409803.995
        38.000          16.250
 108280548.604 8  84374456.70047  20605101.252    20605101.136    20605101.332
        50.250          42.000
 102903963.669 6  80036441.649 6  19243554.162                    19243560.637
        39.000          36.250
 105123781.849 7  81762992.857 7  19720949.896                    19720960.096
        43.000          42.500
 112628112.660 6  87599685.032 7  21047252.142                    21047260.584
        40.750          43.500
 120704999.205 5  93881706.915 6  22588290.986                    22588302.058
        34.500          38.500
 115448043.596 6  89792965.387 6  21581790.791                    21581800.253
        40.250          36.000
 17  1 13  0 38 30.0000000  0 16G30G24G28G06G02G19R13G15G12G13G17R24
                                R14R17R15R23


 118570848.513 7  92392885.13845  22563277.263    22563277.370    22563281.198
        43.750          30.750
 118012654.621 7  91957920.63544  22457066.060    22457065.350    22457066.064
        44.000          25.750
 113019378.643 8  88067082.69746  21506869.620    21506869.839    21506873.864
        48.000          37.500
 124732172.981 6  97193889.29843  23735736.348    23735735.834    23735736.026
        40.500          18.500
 108944539.627 8  84891851.49847  20731452.982    20731452.030    20731451.391
        50.250          45.000
 108092130.088 6  84071686.771 7  20242183.439                    20242191.564
        39.750          45.500
 124675947.012 6  97150081.62743  23725045.201    23725045.241    23725047.329
        38.500          21.500
 129688477.053 5 101055972.22941  24678898.407    24678898.050    24678899.834
        35.750          10.500
 123102020.703 6  95923622.05142  23425538.906    23425538.634    23425540.430
        38.750          16.750
 108334066.480 8  84416158.93947  20615285.153    20615285.042    20615285.564
        50.500          42.000
 102922305.672 6  80050707.653 6  19246984.491                    19246990.412
        38.500          36.250
 105063599.514 7  81716184.398 7  19709659.255                    19709669.785
        42.750          43.000
 112533709.477 6  87526260.346 7  21029610.276                    21029618.432
        40.750          43.000
 120592157.248 5  93793941.038 6  22567172.702                    22567184.843
        33.000          38.750
 115556591.108 6  89877391.190 6  21602082.052                    21602092.565
        39.000          36.750
 17  1 13  0 39  0.0000000  0 15G24G28G06G02G19R13G15G12G13G17R24R14
                                R17R15R23
 118487290.682 7  92327775.16745  22547378.167    22547378.305    22547381.029
        44.500          31.250
 118084357.619 7  92013793.06344  22470710.308    22470709.575    22470710.648
        43.250          26.000
 112944426.120 7  88008678.14746  21492606.325    21492606.548    21492610.546
        47.500          37.000
 124613430.737 6  97101362.94343  23713141.338    23713140.811    23713140.479
        41.250          22.000
 108961949.577 8  84905417.69947  20734765.927    20734764.980    20734764.438
        50.750          45.250
 108147421.677 6  84114691.329 7  20252537.910                    20252545.901
        40.000          45.250
 124724151.460 5  97187643.44042  23734217.594    23734217.728    23734220.465
        33.000          16.500
 129614447.185 6 100998286.65241  24664811.003    24664810.811    24664812.273
        36.250          10.500
 123184867.512 6  95988177.91542  23441304.577    23441304.260    23441305.422
        38.500          14.250
 108387930.210 8  84458130.66347  20625535.373    20625535.266    20625535.507
        50.250          42.000
 102941328.788 6  80065503.419 6  19250541.184                    19250547.941
        39.250          36.750
 105003837.594 7  81669702.909 7  19698447.784                    19698458.851
        42.750          42.750
 112439792.334 6  87453213.715 7  21012060.620                    21012068.490
        40.500          44.000
 120479348.885 5  93706201.244 6  22546063.107                    22546074.657
        34.500          38.250
 115665383.980 6  89962007.828 6  21622420.508                    21622430.672
        39.750          36.500
 17  1 13  0 39 30.0000000  0 16G30G24G28G06G02G19R13G15G12G13G17R24
                                R14R17R15R23
 127416962.683 5                  24246640.492
        34.250
 118404054.221 7  92262915.60245  22531538.589    22531538.741    22531541.683
        44.500          31.250
 118156214.929 7  92069785.72944  22484384.011    22484383.278    22484385.214
        43.750          27.000
 112869880.428 8  87950590.61946  21478421.282    21478421.510    21478425.137
        48.000          37.750
 124494730.566 6  97008869.39143  23690553.057    23690552.525    23690552.189
        40.250          20.750
 108979713.085 8  84919259.39647  20738146.505    20738145.562    20738144.699
        50.750          45.000
 108203260.548 6  84158121.561 7  20262994.460                    20263002.867
        40.000          45.000
 124772670.753 6  97225450.68943  23743451.025    23743451.141    23743453.319
        37.500          19.500
 129540371.704 5 100940565.48641  24650715.890    24650715.573    24650716.194
        34.250          10.000
 123267862.734 6  96052849.51442  23457097.923    23457097.633    23457098.764
        37.000          13.000
 108442137.588 8  84500370.16947  20635850.498    20635850.387    20635850.883
        50.000          42.000
 102961030.889 6  80080827.280 6  19254225.958                    19254232.052
        39.250          36.250
 104944499.621 7  81623551.155 7  19687316.211                    19687327.135
        42.750          43.000
 112346363.364 6  87380546.775 7  20994600.423                    20994607.698
        41.500          42.000
 120366577.220 5  93618490.028 6  22524961.122                    22524970.217
        33.750          38.000
 115774418.674 6  90046812.565 6  21642802.508                    21642812.390
        39.500          36.000
 17  1 13  0 40  0.0000000  0 16G30G24G28G06G02G19R13G15G12G13G17R24
                                R14R17R15R23
 127522850.458 5                  24266789.976
        33.250
 118321141.387 7  92198308.23545  22515760.639    22515760.755    22515763.425
        44.500          31.500
 118228226.248 7  92125898.40844  22498087.607    22498086.897    22498088.139
        44.250          26.000
 112795744.109 8  87892822.08746  21464313.814    21464314.033    21464317.293
        48.250          37.750
 124376075.377 6  96916410.91743  23667973.563    23667972.987    23667972.937
        40.000          21.500
 108997828.370 8  84933375.19947  20741593.782    20741592.839    20741591.868
        50.750          45.000
 108259646.306 6  84201977.133 7  20273554.304                    20273561.660
        40.000          44.500
 124821501.777 6  97263500.77143  23752743.115    23752743.141    23752745.244
        38.000          20.000
 129466250.489 5 100882808.75441  24636611.297    24636611.137    24636611.239
        34.000          10.000
 123351003.358 6  96117634.29842  23472919.328    23472918.989    23472919.959
        37.000          13.500
 108496686.398 8  84542875.73047  20646230.932    20646230.825    20646231.160
        50.250          42.000
 102981409.735 6  80096677.494 6  19258036.679                    19258043.449
        38.750          36.750
 104885587.981 7  81577731.005 7  19676264.775                    19676275.417
        43.000          43.000
 112253424.722 6  87308261.210 7  20977232.216                    20977241.655
        40.750          44.250
 120253844.781 5  93530809.334 6  22503863.202                    22503874.765
        34.250          39.000
 115883691.304 6  90131802.337 6  21663229.658                    21663239.880
        38.250          36.000
 17  1 13  0 40 30.0000000  0 16G30G24G28G06G02G19R13G15G12G13G17R24
                                R14R17R15R23
 127628863.517 5                  24286964.685
        34.250
 118238555.437 7  92133955.58945  22500044.281    22500044.365    22500048.166
        44.250          31.750
 118300391.860 7  92182131.29244  22511820.872    22511820.126    22511820.501
        44.250          25.250
 112722020.218 8  87835374.90846  21450284.434    21450284.648    21450288.091
        49.000          38.750
 124257468.192 6  96823989.69843  23645402.552    23645401.931    23645402.337
        39.000          19.250
 109016294.407 8  84947764.32147  20745107.668    20745106.725    20745105.839
        50.500          45.000
 108316578.891 6  84246258.021 7  20284215.837                    20284223.457
        40.000          44.750
 124870642.590 6  97301792.26643  23762094.016    23762094.074    23762096.627
        38.750          20.500
 129392083.717 4 100825016.43941  24622492.971    24622492.779    24622497.626
        29.250          10.250
 123434286.343 5  96182530.05242  23488766.200    23488765.910    23488768.096
        35.000          12.000
 108551574.289 8  84585645.50746  20656675.591    20656675.475    20656676.012
        50.500          41.750
 103002463.467 6  80113052.617 6  19261974.179                    19261980.323
        39.000          36.750
 104827106.984 7  81532245.780 7  19665294.302                    19665304.323
        43.000          42.750
 112160978.824 6  87236358.853 6  20959957.166                    20959964.312
        41.000          41.500
 120141155.169 5  93443161.926 6  22482774.439                    22482786.101
        35.750          39.000
 115993198.258 6  90216974.371 6  21683701.913                    21683711.406
        39.250          36.000
 17  1 13  0 41  0.0000000  0 16G30G24G28G06G02G19R13G15G12G13G17R24
                                R14R17R15R23
 127735000.411 5                  24307159.785
        30.250
 118156299.205 7  92069859.84245  22484391.750    22484391.848    22484395.466
        44.250          32.000
 118372711.699 7  92238484.37944  22525582.890    22525582.157    22525582.841
        45.000          26.750
 112648711.588 8  87778251.32446  21436334.510    21436334.720    21436338.172
        48.750          38.750
 124138912.456 6  96731608.63643  23622843.784    23622843.208    23622841.400
        39.750          19.250
 109035109.723 8  84962425.60447  20748688.181    20748687.238    20748686.111
        50.750          44.750
 108374058.524 6  84290964.368 7  20294979.672                    20294987.797
        39.750          45.500
 124920090.757 6  97340323.25243  23771504.957    23771505.046    23771506.432
        40.750          22.750
 129317871.777 5 100767189.02941  24608374.409    24608374.409    24608375.478
        35.750          11.250
 123517708.820 6  96247534.52241  23504642.602    23504642.281    23504642.986
        37.500          11.750
 108606799.388 8  84628678.04146  20667184.347    20667184.231    20667184.933
        50.000          41.750
 103024190.106 6  80129951.118 6  19266037.087                    19266043.235
        39.000          36.250
 104769059.751 7  81487097.932 7  19654404.305                    19654415.215
        42.250          43.000
 112069028.031 6  87164841.609 7  20942773.454                    20942782.272
        41.000          44.000
 120028511.344 5  93355550.094 6  22461696.025                    22461706.345
        35.250          38.750
 116102936.057 6  90302325.976 5  21704215.633                    21704225.998
        38.250          35.250
 17  1 13  0 41 30.0000000  0 15G24G28G06G02G19R13G15G12G13G17R24R14
                                R17R15R23
 118074374.733 7  92006022.61445  22468802.386    22468802.466    22468805.767
        44.250          32.000
 118445185.376 7  92294957.32044  22539373.199    22539372.489    22539374.680
        43.500          26.500
 112575820.536 8  87721453.12046  21422463.313    21422463.514    21422467.534
        48.000          38.250
 124020410.352 6  96639269.34542  23600290.959    23600290.342    23600291.737
        36.250          16.250
 109054272.773 8  84977357.85047  20752334.888    20752333.949    20752332.732
        50.750          45.000
 108432084.441 6  84336095.620 7  20305845.907                    20305853.809
        39.750          45.000
 124969843.112 6  97379091.22643  23780973.461    23780973.541    23780973.948
        40.750          22.500
 129243614.729 6 100709326.44242  24594245.499    24594245.307    24594244.801
        38.250          12.000
 123601267.687 5  96312645.26641  23520542.180    23520541.796    23520543.544
        35.500           9.000
 108662359.292 8  84671971.45547  20677757.602    20677757.491    20677757.856
        50.250          42.000
 103046586.979 6  80147370.909 6  19270224.869                    19270231.795
        39.500          36.750
 104711449.626 7  81442290.073 7  19643597.403                    19643607.451
        42.750          43.000
 111977574.355 6  87093711.002 7  20925683.261                    20925691.167
        41.000          43.250
 119915915.355 5  93267975.482 6  22440624.827                    22440635.384
        35.250          38.250
 116212900.840 6  90387854.107 5  21724772.809                    21724782.579
        39.000          35.750
 17  1 13  0 42  0.0000000  0 15G24G28G06G02G19R13G15G12G13G17R24R14
                                R17R15R23
 117992784.364 7  91942445.73145  22453276.112    22453276.188    22453279.225
        44.250          31.750
 118517812.597 7  92351549.92044  22553194.234    22553193.550    22553195.061
        44.250          26.250
 112503349.405 8  87664982.11646  21408672.476    21408672.672    21408676.200
        48.000          38.000
 123901964.687 5  96546974.07842  23577752.698    23577751.965    23577752.425
        35.750          15.500
 109073781.424 8  84992559.39247  20756047.264    20756046.321    20756045.212
        50.750          44.750
 108490655.625 6  84381650.969 7  20316814.270                    20316822.359
        39.250          44.750
 125019896.890 6  97418094.15043  23790497.114    23790497.145    23790499.506
        37.250          21.500
 129169311.899 6 100651428.16542  24580105.312    24580104.950    24580105.424
        36.500          12.750
 123684959.273 6  96377859.42742  23536468.888    23536468.262    23536469.469
        38.500          14.000
 108718251.386 8  84715523.73646  20688393.293    20688393.177    20688393.503
        50.000          41.500
 103069651.482 6  80165309.994 6  19274537.977                    19274545.395
        39.000          36.000
 104654279.234 7  81397824.228 7  19632872.069                    19632882.475
        42.750          43.000
 111886619.372 6  87022968.263 7  20908685.748                    20908694.919
        41.500          44.750
 119803370.289 5  93180440.432 6  22419564.245                    22419573.675
        35.750          38.000
 116323088.399 6  90473555.497 6  21745370.753                    21745381.408
        38.500          36.250
 17  1 13  0 42 30.0000000  0 15G24G28G06G02G19R13G15G12G13G17R24R14
                                R17R15R23
 117911531.081 7  91879131.50345  22437814.185    22437814.283    22437817.445
        44.750          32.000
 118590593.761 7  92408262.49244  22567043.823    22567043.166    22567044.736
        44.500          27.000
 112431301.349 8  87608840.78146  21394962.146    21394962.324    21394965.754
        48.250          38.000
 123783578.789 5  96454725.41142  23555223.943    23555223.156    23555224.659
        34.250          14.750
 109093635.066 8  85008029.76447  20759825.066    20759824.132    20759823.210
        50.750          44.750
 108549772.344 6  84427630.613 7  20327885.462                    20327893.256
        39.750          44.750
 125070250.071 5  97457330.36843  23800078.397    23800078.362    23800081.514
        35.250          18.750
 129094963.975 5 100593494.77441  24565954.531    24565954.259    24565957.353
        33.000          11.000
 123768781.203 6  96443175.12742  23552419.796    23552419.229    23552420.257
        38.750          12.000
 108774473.969 8  84759333.52546  20699092.254    20699092.134    20699092.393
        50.500          41.500
 103093381.727 6  80183766.818 6  19278975.767                    19278982.702
        39.000          36.250
 104597552.591 7  81353703.508 7  19622230.770                    19622240.831
        42.750          42.750
 111796165.848 6  86952615.542 7  20891783.341                    20891790.911
        41.250          44.250
 119690879.863 6  93092947.935 6  22398512.302                    22398522.345
        36.250          37.750
 116433495.262 6  90559427.449 5  21766011.154                    21766020.088
        38.000          35.250
 17  1 13  0 43  0.0000000  0 15G24G28G06G02G19R13G15G12G13G17R24R14
                                R17R15R23
 117830617.504 7  91816081.98745  22422417.101    22422417.199    22422419.985
        45.250          32.250
 118663528.355 7  92465094.60744  22580922.953    22580922.310    22580923.673
        44.250          26.500
 112359678.633 8  87553030.88746  21381332.971    21381333.149    21381336.884
        48.500          38.750
 123665255.254 5  96362525.40242  23532710.111    23532709.155    23532708.760
        35.500          14.750
 109113831.825 8  85023767.50047  20763668.447    20763667.513    20763666.547
        50.750          44.750
 108609433.800 6  84474033.959 7  20339057.672                    20339066.137
        39.500          45.250
 125120899.375 6  97496797.27443  23809718.670    23809718.648    23809719.202
        39.750          22.000
 129020570.764 5 100535526.08641  24551800.424    24551800.165    24551800.652
        34.000          10.750
 123852730.074 6  96508589.88841  23568393.805    23568393.336    23568395.106
        38.000           9.250
 108831024.655 8  84803398.98746  20709853.312    20709853.187    20709853.723
        50.000          41.500
 103117775.180 6  80202739.506 6  19283538.105                    19283543.986
        39.000          36.500
 104541272.679 7  81309930.249 7  19611672.500                    19611682.579
        42.750          42.750
 111706215.549 7  86882654.244 7  20874973.336                    20874981.224
        42.000          43.750
 119578446.350 6  93005499.714 6  22377472.924                    22377482.440
        36.000          37.750
 116544117.755 6  90645467.097 6  21786690.088                    21786700.457
        38.500          36.000
 17  1 13  0 43 30.0000000  0 15G24G28G06G02G19R13G15G12G13G17R24R14
                                R17R15R23
 117750046.462 7  91753299.39645  22407084.099    22407084.170    22407087.851
        44.500          32.500
 118736616.480 7  92522046.35244  22594831.720    22594831.081    22594831.738
        45.000          28.000
 112288484.009 8  87497554.57246  21367784.974    21367785.157    21367788.994
        48.500          39.000
 123546997.334 5  96270376.43642  23510204.376    23510203.312    23510204.913
        33.750          15.500
 109134370.227 8  85039771.44747  20767576.878    20767575.944    20767574.888
        50.750          44.750
 108669639.445 6  84520860.538 7  20350332.663                    20350340.640
        39.750          45.000
 125171841.983 6  97536492.80043  23819411.336    23819411.349    23819412.691
        40.000          22.500
 128946132.494 5 100477522.30742  24537633.331    24537633.059    24537635.459
        33.250          12.250
 123936802.651 6  96574100.89042  23584391.888    23584391.213    23584393.695
        37.000          13.250
 108887901.065 8  84847718.25546  20720676.874    20720676.745    20720676.834
        50.000          41.500
 103142829.550 6  80222226.248 5  19288223.105                    19288229.454
        39.000          35.750
 104485442.606 7  81266506.877 7  19601198.672                    19601209.570
        42.750          43.000
 111616770.615 6  86813085.968 7  20858258.634                    20858266.638
        41.500          44.000
 119466073.062 5  92918098.340 6  22356443.398                    22356453.678
        35.500          37.250
 116654952.256 6  90731671.693 5  21807408.908                    21807419.005
        38.750          35.750
 17  1 13  0 44  0.0000000  0 15G24G28G06G02G19R13G15G12G13G17R24R14
                                R17R15R23
 117669820.098 7  91690785.36545  22391817.783    22391817.872    22391821.186
        44.250          32.500
 118809857.926 7  92579117.55844  22608769.151    22608768.494    22608769.370
        44.250          27.500
 112217719.731 8  87442413.58446  21354318.803    21354318.990    21354322.998
        48.250          39.250
 123428807.029 5  96178280.24742  23487711.502    23487710.465    23487713.975
        31.750          13.750
 109155248.330 8  85056040.09647  20771549.588    20771548.654    20771547.885
        50.250          44.500
 108730388.931 6  84568110.111 7  20361708.895                    20361716.823
        39.750          45.000
 125223075.077 6  97576414.63943  23829160.381    23829160.394    23829162.908
        39.500          22.250
 128871648.976 5 100419483.19542  24523461.655    24523461.302    24523461.865
        35.500          12.750
 124020995.830 6  96639705.94642  23600415.161    23600414.509    23600415.326
        39.250          13.500
 108945100.788 8  84892289.46046  20731561.032    20731560.916    20731561.653
        49.500          41.500
 103168542.047 6  80242224.859 6  19293031.320                    19293037.795
        39.250          36.500
 104430065.715 7  81223435.963 7  19590810.096                    19590820.309
        42.750          43.000
 111527832.788 6  86743912.113 7  20841638.190                    20841645.327
        41.250          42.500
 119353762.605 5  92830745.766 6  22335426.602                    22335435.397
        34.750          37.250
 116765994.671 6  90818037.980 5  21828167.808                    21828178.093
        39.250          35.500
 17  1 13  0 44 30.0000000  0 16G30G24G28G06G02G19R13G15G12G13G17R24
                                R14R17R15R23
 128481249.564 5                  24449171.148
        30.000
 117589941.451 7  91628542.29145  22376617.459    22376617.503    22376620.925
        44.750          32.500
 118883252.287 7  92636307.93844  22622735.119    22622734.444    22622736.031
        44.500          27.750
 112147388.537 8  87387610.08346  21340935.295    21340935.482    21340939.566
        48.500          38.750
 123310687.906 5  96086239.41842  23465236.032    23465235.205    23465236.577
        32.250          12.000
 109176464.708 8  85072572.33247  20775587.177    20775586.234    20775585.255
        50.500          44.750
 108791681.518 6  84615782.107 7  20373186.795                    20373195.166
        39.750          44.750
 125274596.428 6  97616561.04543  23838964.932    23838964.910    23838967.307
        40.750          22.500
 128797120.454 5 100361409.07542  24509278.307    24509278.008    24509279.662
        35.000          16.500
 124105306.776 6  96705402.79542  23616458.100    23616457.488    23616459.691
        36.750          15.000
 109002621.584 8  84937110.84546  20742506.906    20742506.786    20742507.613
        49.750          41.250
 103194910.521 6  80262733.655 6  19297962.827                    19297968.935
        39.250          36.250
 104375145.594 7  81180720.323 7  19580507.111                    19580517.642
        42.750          42.750
 111439404.286 6  86675134.415 7  20825113.246                    20825121.353
        40.750          44.000
 119241518.164 5  92743444.597 6  22314420.171                    22314429.982
        35.250          37.250
 116877241.343 6  90904563.133 6  21848963.285                    21848974.514
        38.000          36.000
 17  1 13  0 45  0.0000000  0 16G30G24G28G06G02G19R13G15G12G13G17R24
                                R14R17R15R23
 128588303.427 4                  24469542.658
        28.500
 117510412.978 7  91566572.06745  22361483.096    22361483.163    22361487.156
        44.000          33.000
 118956799.657 7  92693617.55344  22636731.199    22636730.551    22636731.772
        44.500          28.000
 112077493.112 8  87333146.12346  21327635.035    21327635.231    21327638.617
        48.750          39.250
 123192642.804 5  95994256.31141  23442774.047    23442773.189    23442773.260
        35.000          11.500
 109198017.962 8  85089367.06647  20779688.456    20779687.513    20779686.761
        50.500          44.500
 108853516.719 6  84663876.124 7  20384766.777                    20384774.960
        39.500          44.750
 125326403.279 6  97656929.96043  23848823.698    23848823.663    23848825.397
        41.250          21.750
 128722547.040 6 100303300.00742  24495087.564    24495087.292    24495088.682
        37.750          17.500
 124189732.626 5  96771189.07341  23632522.672    23632522.122    23632525.476
        33.750          10.000
 109060461.656 8  84982181.01746  20753513.685    20753513.560    20753514.235
        50.250          41.750
 103221932.391 6  80283750.676 6  19303015.662                    19303021.895
        39.000          36.000
 104320685.019 7  81138362.102 7  19570290.308                    19570300.749
        42.500          43.000
 111351487.137 6  86606754.443 7  20808683.369                    20808691.628
        41.000          44.250
 119129343.004 5  92656197.307 6  22293427.991                    22293438.213
        35.000          37.250
 116988689.108 6  90991244.700 5  21869798.600                    21869808.586
        38.500          35.500
 17  1 13  0 45 30.0000000  0 15G24G28G06G02G19R13G15G12G13G17R24R14
                                R17R15R23
 117431236.909 7  91504876.45145  22346417.766    22346417.855    22346420.529
        46.000          32.750
 119030500.000 7  92751046.35544  22650756.148    22650755.500    22650756.421
        45.000          28.000
 112008035.821 8  87279023.57246  21314417.786    21314417.969    21314421.292
        49.250          39.500
 123074674.488 5  95902332.91941  23420323.636    23420322.970    23420324.472
        33.000          10.500
 109219906.587 8  85106423.13747  20783854.099    20783853.156    20783852.100
        51.000          44.500
 108915894.083 6  84712391.842 7  20396448.037                    20396456.309
        39.750          44.750
 125378492.799 6  97697519.13043  23858735.796    23858735.703    23858736.900
        41.000          19.750
 128647928.869 6 100245155.99843  24480887.215    24480886.965    24480889.429
        39.250          21.250
 124274270.044 5  96837062.33641  23648608.422    23648607.841    23648612.312
        31.750           8.750
 109118618.288 8  85027497.87346  20764580.463    20764580.347    20764580.781
        50.000          41.000
 103249605.163 6  80305273.941 6  19308190.120                    19308197.432
        38.750          36.500
 104266687.952 7  81096364.392 7  19560160.790                    19560171.017
        42.750          42.750
 111264083.246 6  86538773.687 7  20792350.146                    20792358.745
        41.500          44.750
 119017239.850 5  92569005.971 6  22272448.337                    22272458.509
        35.000          37.000
 117100333.921 6  91078079.497 5  21890668.522                    21890678.498
        37.250          34.500
 17  1 13  0 46  0.0000000  0 15G24G28G06G02G19R13G15G12G13G17R24R14
                                R17R15R23
 117352415.983 7  91443457.56145  22331418.236    22331418.294    22331421.165
        45.000          32.500
 119104352.843 7  92808593.99344  22664809.009    22664808.343    22664809.890
        43.500          26.750
 111939019.010 8  87225244.25346  21301283.750    21301283.928    21301287.985
        48.500          39.250
 122956785.621 5  95810471.53041  23397891.960    23397891.518    23397890.977
        33.000           8.750
 109242128.643 8  85123739.01347  20788082.349    20788081.406    20788080.699
        50.750          44.500
 108978812.540 6  84761328.407 7  20408230.932                    20408239.039
        38.750          44.750
 125430861.841 6  97738326.19443  23868702.488    23868702.390    23868702.917
        41.250          20.000
 128573265.825 6 100186977.02743  24466679.775    24466679.623    24466681.939
        39.250          21.000
 124358915.609 5  96903019.88341  23664716.990    23664716.472    23664719.866
        33.000           9.000
 109177089.240 8  85073059.64446  20775707.528    20775707.417    20775707.438
        50.000          41.250
 103277926.247 6  80327301.431 6  19313487.026                    19313493.125
        39.000          36.250
 104213156.612 7  81054728.916 7  19550118.487                    19550128.696
        42.500          43.250
 111177194.318 6  86471193.442 7  20776113.027                    20776121.023
        41.500          44.750
 118905211.599 5  92481873.001 6  22251484.498                    22251495.216
        35.750          37.750
 117212171.851 6  91165064.524 5  21911576.389                    21911585.828
        38.000          35.250
 17  1 13  0 46 30.0000000  0 15G24G28G06G02G19R13G15G12G13G17R24R14
                                R17R15R23
 117273953.090 7  91382317.67645  22316487.148    22316487.174    22316490.131
        45.250          33.000
 119178358.415 7  92866260.61444  22678892.702    22678892.072    22678893.149
        44.250          27.250
 111870445.409 8  87171810.30246  21288234.675    21288234.862    21288238.780
        48.750          39.250
 122838979.363 6  95718674.35942  23375473.727    23375473.151    23375472.980
        38.250          14.000
 109264683.309 8  85141314.07747  20792374.440    20792373.497    20792372.647
        50.500          44.250
 109042272.020 6  84810685.731 7  20420114.672                    20420122.747
        39.500          44.500
 125483507.825 6  97779348.98543  23878719.092    23878719.008    23878721.140
        39.750          18.750
 128498558.206 6 100128763.34943  24452463.557    24452463.446    24452465.117
        39.750          21.000
 124443666.904 5  96969059.85241  23680844.921    23680844.546    23680847.694
        33.000           9.500
 109235872.670 8  85118864.89946  20786893.274    20786893.167    20786893.775
        49.750          41.500
 103306893.187 6  80349831.278 6  19318903.860                    19318910.263
        38.750          36.250
 104160094.793 7  81013458.626 7  19540163.869                    19540174.699
        42.750          43.000
 111090822.578 7  86404015.449 7  20759972.451                    20759980.035
        42.250          43.750
 118793261.847 6  92394800.990 6  22230534.276                    22230545.862
        36.250          38.750
 117324199.766 6  91252197.276 5  21932518.464                    21932528.597
        37.250          34.750
 17  1 13  0 47  0.0000000  0 15G24G28G06G02G19R13G15G12G13G17R24R14
                                R17R15R23
 117195851.245 7  91321459.11445  22301624.065    22301624.105    22301627.839
        44.500          32.750
 119252516.798 7  92924046.32644  22693004.221    22693003.560    22693004.830
        43.500          26.500
 111802317.857 8  87118723.90846  21275270.730    21275270.913    21275274.379
        49.250          39.250
 122721259.023 6  95626944.27742  23353072.794    23353072.052    23353071.524
        36.000          14.500
 109287568.745 8  85159146.88747  20796729.675    20796728.736    20796727.641
        50.750          44.250
 109106271.551 6  84860463.131 7  20432099.452                    20432107.711
        39.500          44.250
 125536428.597 6  97820585.91743  23888790.734    23888790.690    23888791.986
        40.000          20.750
 128423806.403 6 100070515.28043  24438240.162    24438240.051    24438240.703
        41.250          22.750
 124528520.559 5  97035179.49241  23696992.599    23696992.286    23696994.875
        34.000          10.000
 109294966.256 8  85164911.82946  20798138.582    20798138.471    20798139.011
        50.000          41.000
 103336504.009 6  80372861.922 5  19324440.779                    19324447.375
        38.750          35.750
 104107506.068 7  80972556.274 7  19530298.222                    19530309.088
        43.250          43.000
 111004970.186 6  86337241.401 7  20743928.256                    20743936.278
        41.000          43.250
 118681393.568 5  92307792.380 6  22209600.625                    22209611.214
        35.250          40.000
 117436414.033 6  91339475.006 5  21953495.740                    21953506.319
        38.500          35.000
 17  1 13  0 47 30.0000000  0 15G24G28G06G02G19R13G15G12G13G17R24R14
                                R17R15R23
 117118112.116 7  91260883.18945  22286830.507    22286830.542    22286834.527
        44.250          33.000
 119326827.245 7  92981950.53644  22707144.833    22707144.194    22707145.652
        43.250          27.000
 111734638.293 8  87065986.60946  21262391.411    21262391.598    21262395.493
        49.250          39.250
 122603627.180 5  95535283.22342  23330687.069    23330686.282    23330686.890
        34.500          16.000
 109310782.967 8  85177235.89147  20801146.914    20801145.975    20801145.233
        50.750          44.500
 109170810.390 6  84910660.000 7  20444185.434                    20444194.144
        39.000          44.500
 125589620.690 6  97862034.29143  23898912.068    23898912.046    23898914.438
        38.250          20.000
 128349010.218 6 100012232.57443  24424006.392    24424006.263    24424007.144
        40.500          23.000
 124613473.391 6  97101376.47242  23713157.103    23713156.688    23713160.984
        36.000          13.500
 109354367.221 8  85211198.28546  20809442.383    20809442.276    20809442.499
        50.250          41.000
 103366755.351 6  80396390.741 6  19330098.169                    19330104.921
        38.750          36.000
 104055393.043 7  80932023.934 7  19520522.088                    19520532.895
        43.000          43.000
 110919638.538 6  86270872.384 7  20727982.414                    20727990.521
        41.750          44.500
 118569609.488 5  92220849.263 6  22188681.887                    22188691.792
        34.000          39.500
 117548810.696 6  91426894.617 5  21974506.584                    21974517.486
        37.250          34.750
 17  1 13  0 48  0.0000000  0 15G24G28G06G02G19R13G15G12G13G17R24R14
                                R17R15R23
 117040738.938 7  91200592.43845  22272107.251    22272107.313    22272111.048
        44.750          33.250
 119401290.158 7  93039973.54144  22721314.645    22721314.033    22721315.624
        43.250          27.250
 111667409.240 8  87013600.33746  21249598.264    21249598.460    21249602.136
        48.500          39.500
 122486086.537 6  95443693.13242  23308320.554    23308319.674    23308319.422
        37.500          17.000
 109334324.727 8  85195580.11947  20805626.872    20805625.938    20805625.056
        50.000          44.250
 109235888.176 6  84961276.009 7  20456373.172                    20456381.288
        39.250          44.750
 125643081.552 6  97903692.08543  23909085.734    23909085.658    23909087.384
        37.750          19.500
 128274169.807 6  99953915.43343  24409764.037    24409763.917    24409765.544
        40.000          23.000
 124698522.446 6  97167648.38842  23729343.138    23729342.843    23729345.150
        38.000          14.250
 109414073.572 8  85257722.70346  20820803.886    20820803.779    20820804.190
        49.500          41.000
 103397644.659 6  80420415.777 6  19335874.213                    19335881.251
        38.750          36.250
 104003759.069 7  80891864.168 7  19510836.110                    19510846.221
        42.750          43.250
 110834829.391 7  86204909.751 7  20712133.928                    20712141.633
        42.000          44.000
 118457913.228 6  92133974.472 6  22167778.545                    22167788.897
        36.500          39.000
 117661386.201 6  91514453.248 5  21995551.851                    21995561.371
        37.000          33.500
 17  1 13  0 48 30.0000000  0 15G24G28G06G02G19R13G15G12G13G17R24R14
                                R17R15R23
 116963733.175 7  91140587.96545  22257453.601    22257453.654    22257457.330
        44.750          33.000
 119475904.757 7  93098114.75444  22735513.755    22735513.107    22735514.153
        43.250          27.000
 111600633.004 8  86961566.92646  21236891.035    21236891.236    21236895.167
        48.750          39.750
 122368639.812 6  95352176.22442  23285971.464    23285970.651    23285969.662
        39.750          12.000
 109358192.334 8  85214178.25747  20810168.877    20810167.938    20810166.883
        50.250          44.250
 109301503.371 6  85012310.013 7  20468660.332                    20468668.457
        39.000          44.250
 125696808.164 6  97945556.97743  23919309.048    23919309.022    23919310.966
        37.500          19.000
 128199285.143 6  99895563.77843  24395514.765    24395514.578    24395514.980
        40.500          22.250
 124783664.513 6  97233992.78642  23745545.611    23745545.263    23745547.386
        38.500          13.250
 109474083.096 8  85304483.36046  20832223.650    20832223.543    20832223.878
        50.000          41.000
 103429169.343 6  80444934.966 6  19341769.265                    19341776.554
        38.750          36.500
 103952607.150 7  80852079.351 7  19501239.883                    19501250.409
        42.500          43.000
 110750544.795 6  86139355.104 7  20696382.767                    20696391.188
        41.500          44.250
 118346307.297 5  92047169.882 6  22146892.388                    22146904.197
        35.250          38.750
 117774136.789 6  91602148.142 5  22016629.170                    22016639.370
        36.250          33.750
 17  1 13  0 49  0.0000000  0 15G24G28G06G02G19R13G15G12G13G17R24R14
                                R17R15R23
 116887098.468 7  91080872.63545  22242870.187    22242870.236    22242874.041
        44.750          33.000
 119550671.030 7  93156374.14744  22749741.546    22749740.903    22749742.011
        43.500          26.750
 111534312.341 8  86909888.50646  21224271.119    21224271.324    21224274.875
        49.000          39.750
 122251290.456 6  95260735.30142  23263639.260    23263638.491    23263638.679
        36.500          15.750
 109382384.024 8  85233028.92547  20814771.979    20814771.040    20814770.334
        50.250          44.000
 109367655.780 6  85063761.862 7  20481048.533                    20481056.792
        39.250          44.250
 125750798.115 6  97987627.03643  23929583.204    23929583.128    23929585.360
        37.750          18.500
 128124356.467 6  99837177.83643  24381255.901    24381255.749    24381256.818
        41.000          23.000
 124868896.846 6  97300407.48442  23761764.986    23761764.602    23761766.471
        39.500          14.500
 109534393.547 8  85351478.52446  20843700.226    20843700.115    20843700.481
        50.000          40.750
 103461326.831 6  80469946.347 6  19347783.933                    19347790.408
        39.000          36.000
 103901941.127 7  80812672.456 7  19491735.494                    19491745.707
        42.500          43.250
 110666786.596 7  86074209.863 7  20680731.776                    20680739.100
        42.250          44.500
 118234795.582 6  91960438.579 6  22126025.257                    22126035.712
        36.250          39.000
 117887059.485 6  91689976.828 5  22037738.506                    22037749.010
        36.500          33.750
 17  1 13  0 49 30.0000000  0 15G24G28G06G02G19R13G15G12G13G17R24R14
                                R17R15R23
 116810837.161 7  91021448.25545  22228358.524    22228358.568    22228361.712
        45.250          33.250
 119625589.567 7  93214752.20344  22763997.977    22763997.329    22763998.469
        42.500          25.000
 111468449.515 8  86858566.84546  21211737.492    21211737.688    21211741.395
        48.750          39.500
 122134041.228 6  95169372.24942  23241327.889    23241327.201    23241326.704
        40.000          16.750
 109406898.648 8  85252131.22847  20819437.353    20819436.414    20819435.403
        50.500          44.250
 109434344.370 6  85115630.740 7  20493537.377                    20493545.363
        39.000          44.500
 125805048.173 5  98029899.74842  23939907.206    23939907.157    23939909.259
        35.750          16.750
 128049383.713 6  99778757.54543  24366988.738    24366988.609    24366989.972
        39.250          23.000
 124954216.038 6  97366889.92742  23778000.066    23777999.731    23778002.172
        40.250          15.750
 109595002.555 8  85398706.31546  20855233.989    20855233.869    20855233.869
        50.000          40.750
 103494114.311 6  80495447.721 6  19353915.037                    19353921.253
        38.500          36.250
 103851763.633 7  80773645.510 7  19482322.317                    19482332.517
        42.750          43.250
 110583556.398 6  86009475.269 7  20665177.022                    20665185.353
        41.750          44.750
 118123380.430 6  91873782.415 6  22105175.530                    22105186.186
        36.250          39.250
 118000150.117 6  91777936.181 5  22058879.765                    22058889.657
        37.250          33.250
 17  1 13  0 50  0.0000000  0 15G24G28G06G02G19R13G15G12G13G17R24R14
                                R17R15R23
 116734951.540 7  90962316.62045  22213918.085    22213918.125    22213921.215
        45.500          33.250
 119700659.595 7  93273248.28344  22778282.875    22778282.196    22778283.327
        42.750          25.250
 111403046.867 8  86807603.76646  21199291.795    21199291.991    21199295.466
        49.500          40.000
 122016895.024 6  95078089.63342  23219034.584    23219033.829    23219034.472
        36.250          14.000
 109431734.088 8  85271483.51947  20824163.317    20824162.378    20824161.479
        50.750          44.000
 109501568.818 6  85167916.403 7  20506125.580                    20506133.974
        39.500          43.750
 125859555.817 6  98072373.17042  23950278.661    23950278.603    23950281.688
        36.750          16.750
 127974367.388 6  99720303.36843  24352714.263    24352714.129    24352715.086
        40.500          22.250
 125039619.299 6  97433437.82542  23794252.022    23794251.683    23794253.542
        40.000          15.250
 109655908.274 8  85446165.31746  20866823.751    20866823.635    20866824.024
        50.000          41.250
 103527529.097 6  80521437.007 6  19360163.718                    19360169.996
        39.000          36.000
 103802078.087 7  80735001.205 7  19473000.786                    19473011.536
        42.500          43.000
 110500855.915 6  85945152.714 7  20649722.473                    20649731.152
        41.000          44.250
 118012065.436 6  91787204.101 6  22084344.440                    22084354.613
        36.000          38.500
 118113405.298 6  91866023.528 5  22080052.549                    22080062.713
        36.750          33.000
 17  1 13  0 50 30.0000000  0 16G30G24G28G06G02G19R13G15G12G13G17R24
                                R14R17R15R23
 129772423.054 5                  24694871.202
        32.250
 116659444.950 7  90903480.33345  22199549.707    22199549.747    22199552.801
        45.250          33.750
 119775881.351 7  93331862.61844  22792597.362    22792596.656    22792597.885
        42.250          25.000
 111338107.057 8  86757001.33846  21186934.023    21186934.219    21186937.855
        48.750          39.750
 121899855.077 6  94986889.71443  23196763.180    23196762.398    23196763.377
        37.000          18.250
 109456889.266 8  85291084.95447  20828950.135    20828949.188    20828948.315
        50.000          44.000
 109569328.076 6  85220618.019 7  20518816.014                    20518823.365
        39.000          44.250
 125914318.446 6  98115045.31142  23960699.679    23960699.621    23960702.084
        38.000          16.250
 127899308.107 6  99661815.68143  24338430.125    24338429.947    24338431.865
        40.000          22.750
 125125103.626 6  97500048.88542  23810519.395    23810519.082    23810520.889
        40.000          16.250
 109717108.544 8  85493853.83546  20878469.712    20878469.592    20878470.069
        50.000          41.000
 103561568.613 6  80547912.174 6  19366528.809                    19366536.035
        39.000          36.500
 103752887.496 7  80696741.857 7  19463772.636                    19463783.248
        42.500          43.000
 110418687.358 7  85881243.863 7  20634367.842                    20634375.502
        42.000          44.250
 117900854.272 6  91700706.640 6  22063533.862                    22063543.297
        36.750          39.000
 118226821.794 5  91954236.297 5  22101254.198                    22101263.749
        35.500          33.250
 17  1 13  0 51  0.0000000  0 16G30G24G28G06G02G19R13G15G12G13G17R24
                                R14R17R15R23
 129880611.355 5                  24715457.085
        34.250
 116584319.125 7  90844940.75345  22185254.005    22185254.036    22185257.086
        45.500          33.750
 119851254.547 7  93390594.92644  22806940.024    22806939.322    22806941.312
        42.000          25.500
 111273632.301 8  86706761.29446  21174665.022    21174665.223    21174668.577
        49.250          40.000
 121782924.005 6  94895774.66543  23174512.230    23174511.461    23174512.100
        38.250          19.750
 109482362.177 8  85310933.97047  20833797.428    20833796.485    20833795.621
        50.250          44.250
 109637621.250 6  85273734.904 7  20531605.091                    20531612.729
        39.000          44.250
 125969333.051 6  98157913.84142  23971170.640    23971170.600    23971170.488
        39.750          17.250
 127824205.662 6  99603294.33243  24324138.301    24324138.154    24324140.456
        40.250          22.250
 125210665.923 6  97566720.78342  23826801.038    23826800.766    23826803.104
        39.000          15.250
 109778600.906 8  85541769.95246  20890171.036    20890170.916    20890171.537
        49.750          40.750
 103596230.012 6  80574871.039 6  19373010.806                    19373017.576
        39.250          36.500
 103704195.475 7  80658870.280 7  19454638.207                    19454648.939
        42.500          43.000
 110337052.142 7  85817749.819 7  20619111.556                    20619119.824
        42.000          44.500
 117789749.656 6  91614291.961 6  22042740.759                    22042751.545
        37.000          39.000
 118340395.845 5  92042571.630 5  22122485.636                    22122495.979
        35.500          33.750
 17  1 13  0 51 30.0000000  0 16G30G24G28G06G02G19R13G15G12G13G17R24
                                R14R17R15R23
 129988881.086 5 101290060.2334   24736058.843    24736058.204    24736067.751
        30.750           4.000
 116509576.744 7  90786699.94245  22171030.628    22171030.677    22171034.040
        45.250          34.000
 119926778.990 7  93449445.08844  22821311.748    22821311.029    22821313.201
        42.000          24.250
 111209624.866 8  86656885.38946  21162484.550    21162484.751    21162488.441
        49.250          40.250
 121666104.768 6  94804746.71742  23152281.701    23152280.999    23152281.652
        36.500          17.500
 109508151.640 8  85331029.65147  20838705.051    20838704.112    20838703.209
        50.250          44.000
 109706447.474 6  85327266.386 7  20544492.835                    20544501.823
        38.500          44.250
 126024596.743 6  98200976.36142  23981684.820    23981684.682    23981687.391
        37.500          16.500
 127749059.769 6  99544739.10943  24309839.031    24309838.942    24309839.970
        40.500          20.500
 125296303.295 6  97633451.10842  23843098.215    23843097.867    23843099.682
        40.500          17.750
 109840382.828 8  85589911.71046  20901928.246    20901928.126    20901928.260
        50.250          41.000
 103631510.508 6  80602311.435 6  19379608.976                    19379615.656
        39.000          36.000
 103656005.010 7  80621388.809 7  19445598.053                    19445608.445
        42.250          43.000
 110255951.942 6  85754671.926 7  20603956.587                    20603964.533
        41.750          44.500
 117678754.857 6  91527962.721 6  22021969.916                    22021979.892
        36.000          39.500
 118454123.837 5  92131026.689 5  22143746.314                    22143757.171
        35.250          32.750
 17  1 13  0 52  0.0000000  0 16G30G24G28G06G02G19R13G15G12G13G17R24
                                R14R17R15R23
 130097230.028 5 101374487.89141  24756680.647    24756680.111    24756686.085
        34.000           7.500
 116435220.567 7  90728760.06945  22156881.368    22156881.403    22156884.328
        45.750          34.000
 120002454.523 7  93508412.99943  22835712.966    22835712.256    22835713.243
        42.750          23.750
 111146087.022 8  86607375.41646  21150393.869    21150394.065    21150397.705
        49.250          40.000
 121549400.280 6  94713808.22643  23130074.515    23130073.796    23130073.370
        40.750          22.250
 109534256.082 8  85351370.77547  20843672.536    20843671.597    20843670.784
        50.250          44.250
 109775805.427 6  85381211.413 7  20557482.215                    20557490.058
        39.000          44.000
 126080106.663 6  98244230.79142  23992247.951    23992247.835    23992251.184
        37.500          16.250
 127673871.247 6  99486150.65043  24295530.420    24295530.349    24295531.748
        38.500          20.500
 125382012.263 6  97700237.27242  23859408.633    23859408.289    23859409.076
        40.750          15.750
 109902452.382 8  85638277.59746  20913739.429    20913739.313    20913739.849
        49.750          40.750
 103667407.053 6  80630230.961 6  19386321.422                    19386328.215
        39.250          36.750
 103608318.887 7  80584299.597 7  19436652.505                    19436662.848
        42.500          43.250
 110175388.326 7  85692011.352 7  20588901.622                    20588909.171
        42.000          44.500
 117567873.110 6  91441721.416 6  22001220.326                    22001229.972
        37.000          39.500
 118568002.219 6  92219598.703 5  22165034.122                    22165045.256
        36.250          33.250
 17  1 13  0 52 30.0000000  0 16G30G24G28G06G02G19R13G15G12G13G17R24
                                R14R17R15R23
 130205656.295 4 101458975.8424   24777310.290    24777309.624    24777318.572
        29.750           4.250
 116361252.767 7  90671122.83945  22142805.666    22142805.715    22142808.742
        45.750          34.000
 120078281.068 7  93567498.60744  22850142.614    22850141.904    22850142.413
        42.750          24.000
 111083021.172 8  86558233.21746  21138392.901    21138393.093    21138396.608
        49.250          40.000
 121432813.723 7  94622961.60644  23107888.841    23107888.117    23107887.853
        42.250          24.000
 109560673.290 8  85371955.61847  20848699.709    20848698.770    20848697.706
        50.500          43.750
 109845694.571 6  85435569.606 7  20570570.247                    20570578.421
        39.250          44.250
 126135860.317 6  98287675.19342  24002858.950    24002858.924    24002860.573
        37.250          17.500
 127598639.908 6  99427528.89843  24281213.765    24281213.645    24281215.715
        38.000          19.500
 125467790.129 6  97767077.14342  23875731.249    23875730.977    23875731.683
        39.750          15.250
 109964807.161 8  85686865.72646  20925605.300    20925605.184    20925605.465
        49.750          40.750
 103703917.285 6  80658627.822 6  19393149.094                    19393155.689
        38.750          36.250
 103561140.209 7  80547605.071 7  19427801.943                    19427811.968
        43.000          43.000
 110095362.989 7  85629769.439 7  20573946.925                    20573954.321
        42.000          45.000
 117457107.659 6  91355570.563 6  21980491.570                    21980502.096
        36.750          39.500
 118682027.673 6  92308285.138 5  22186350.642                    22186360.900
        36.000          33.750
 17  1 13  0 53  0.0000000  0 16G30G24G28G06G02G19R13G15G12G13G17R24
                                R14R17R15R23
 130314157.959 5 101543522.48641  24797959.818    24797959.152    24797965.766
        30.000           6.750
 116287676.647 7  90613790.80045  22128803.983    22128804.032    22128807.797
        45.250          34.000
 120154258.442 6  93626701.71243  22864599.764    22864599.018    22864600.971
        40.500          23.000
 111020429.677 8  86509460.64346  21126482.162    21126482.358    21126485.654
        49.250          40.000
 121316347.906 7  94532209.09444  23085725.892    23085725.190    23085724.560
        42.000          24.250
 109587402.070 8  85392783.23447  20853785.799    20853784.860    20853784.132
        49.750          43.750
 109916114.029 6  85490340.257 7  20583757.988                    20583765.558
        38.750          44.500
 126191854.656 5  98331307.09142  24013511.786    24013511.848    24013515.846
        32.750          13.000
 127523366.023 6  99368873.93643  24266890.416    24266890.260    24266891.847
        38.500          19.000
 125553633.975 6  97833968.37642  23892066.042    23892065.801    23892067.164
        36.250          12.500
 110027445.227 8  85735674.60646  20937524.861    20937524.736    20937525.152
        49.750          40.500
 103741038.194 6  80687499.640 6  19400091.498                    19400097.731
        38.750          36.250
 103514472.337 7  80511307.840 7  19419046.998                    19419057.386
        42.750          43.250
 110015877.709 6  85567947.608 7  20559092.020                    20559101.066
        41.500          44.500
 117346461.852 6  91269512.758 6  21959786.084                    21959795.975
        37.250          39.500
 118796196.838 6  92397083.313 5  22207694.304                    22207703.516
        37.000          33.500
 17  1 13  0 53 30.0000000  0 16G30G24G28G06G02G19R13G15G12G13G17R24
                                R14R17R15R23
 130422733.068 5 101628126.4584   24818618.978    24818618.415    24818626.741
        30.000           4.500
 116214494.222 7  90556765.55345  22114878.724    22114878.777    22114881.742
        46.000          34.250
 120230386.491 6  93686022.23043  22879087.226    22879086.489    22879088.049
        41.750          22.500
 110958314.899 8  86461059.54846  21114661.893    21114662.094    21114665.882
        49.250          40.250
 121200005.630 6  94441552.83243  23063586.111    23063585.468    23063585.378
        41.750          22.750
 109614440.873 8  85413852.42947  20858931.448    20858930.509    20858929.359
        50.500          43.750
 109987062.872 6  85545522.657 7  20597043.728                    20597052.059
        38.250          43.750
 126248086.903 5  98375124.39142  24024214.038    24024214.216    24024216.533
        35.500          15.250
 127448049.971 6  99310186.14743  24252556.384    24252556.201    24252559.196
        36.000          18.000
 125639540.719 5  97900908.63341  23908413.449    23908413.262    23908414.768
        35.750          11.500
 110090364.244 8  85784702.39846  20949497.295    20949497.170    20949498.319
        49.250          40.250
 103778766.886 6  80716844.171 6  19407146.046                    19407152.785
        39.000          36.750
 103468318.087 7  80475410.093 7  19410388.501                    19410398.764
        42.500          42.750
 109936934.045 7  85506546.982 7  20544340.571                    20544348.039
        42.250          44.250
 117235939.245 6  91183550.768 6  21939101.704                    21939113.352
        36.000          39.750
 118910506.020 6  92485990.421 5  22229061.251                    22229072.913
        36.500          35.000
 17  1 13  0 54  0.0000000  0 16G30G24G28G06G02G19R13G15G12G13G17R24
                                R14R17R15R23
 130531379.256 5 101712785.7814   24839296.052    24839295.695    24839301.561
        31.000           5.000
 116141707.582 7  90500048.71445  22101027.645    22101027.680    22101030.762
        46.000          34.250
 120306664.921 6  93745459.94543  22893601.880    22893601.138    22893603.052
        40.250          22.000
 110896678.825 8  86413031.45846  21102932.854    21102933.055    21102936.995
        49.250          40.750
 121083790.103 6  94350995.33343  23041471.017    23041470.360    23041470.481
        40.250          22.500
 109641787.793 8  85435161.72447  20864134.882    20864133.943    20864133.228
        50.000          43.750
 110058539.516 6  85601115.574 7  20610429.790                    20610437.280
        39.000          43.500
 126304553.825 6  98419124.52143  24034960.147    24034960.272    24034962.043
        37.000          18.000
 127372691.649 6  99251465.46042  24238217.482    24238217.281    24238219.007
        36.250          17.000
 125725506.923 6  97967895.32442  23924773.595    23924773.403    23924773.595
        37.250          13.500
 110153561.721 8  85833947.17846  20961523.818    20961523.711    20961524.243
        49.250          40.250
 103817100.492 6  80746659.204 6  19414314.889                    19414321.945
        39.250          36.000
 103422680.858 7  80439914.459 7  19401827.441                    19401837.668
        42.500          43.500
 109858533.456 7  85445568.772 7  20529689.917                    20529697.282
        42.250          44.750
 117125542.605 5  91097686.745 6  21918441.632                    21918453.566
        34.750          39.500
 119024951.867 6  92575003.799 5  22250455.984                    22250467.512
        36.250          35.000
 17  1 13  0 54 30.0000000  0 16G30G24G28G06G02G19R13G15G12G13G17R24
                                R14R17R15R23
 130640094.782 4 101797499.1104   24859981.711    24859981.099    24859989.487
        28.250           3.500
 116069320.267 7  90443643.03745  22087252.687    22087252.709    22087256.157
        45.750          34.750
 120383093.945 7  93805014.95643  22908146.727    22908145.976    22908146.700
        42.000          23.250
 110835524.054 8  86365378.40646  21091295.716    21091295.921    21091299.584
        49.750          41.000
 120967704.372 6  94260538.99744  23019380.531    23019379.865    23019380.661
        41.250          25.250
 109669441.626 8  85456710.16047  20869397.396    20869396.457    20869395.594
        49.750          43.500
 110130543.480 6  85657118.610 7  20623913.328                    20623921.180
        38.500          43.250
 126361252.856 6  98463305.55342  24045749.430    24045749.577    24045750.946
        37.500          17.250
 127297291.697 6  99192712.31742  24223868.962    24223868.855    24223870.308
        37.000          15.500
 125811530.107 5  98034926.25341  23941140.669    23941140.477    23941143.271
        32.000          11.000
 110217036.038 8  85883407.67546  20973602.909    20973602.807    20973602.762
        49.750          40.750
 103856036.339 6  80776942.628 6  19421596.546                    19421602.811
        39.000          36.500
 103377563.792 7  80404823.419 7  19393363.393                    19393373.830
        42.250          43.250
 109780677.604 6  85385014.258 7  20515139.709                    20515148.232
        41.500          44.500
 117015275.926 6  91011923.806 6  21897807.991                    21897818.352
        36.000          39.250
 119139530.912 5  92664120.748 5  22271875.780                    22271885.971
        35.000          34.250
 17  1 13  0 55  0.0000000  0 16G30G24G28G06G02G19R13G15G12G13G17R24
                                R14R17R15R23


 115997333.848 7  90387549.73245  22073553.978    22073554.031    22073557.341
        45.500          34.500
 120459672.837 6  93864686.78743  22922719.097    22922718.355    22922718.989
        41.750          23.750
 110774852.490 8  86318101.88246  21079750.156    21079750.357    21079753.988
        49.000          41.000
 120851751.232 6  94170186.00143  22997315.117    22997314.474    22997315.046
        40.000          23.000
 109697399.991 8  85478495.89647  20874717.979    20874717.036    20874716.020
        50.000          43.750
 110203073.271 6  85713530.655 7  20637496.382                    20637503.814
        39.000          43.500
 126418180.986 6  98507665.10542  24056583.438    24056583.563    24056584.194
        36.000          16.250
 127221850.124 6  99133926.66442  24209514.043    24209513.824    24209514.016
        38.500          16.250
 125897607.145 5  98101999.19941  23957520.790    23957520.545    23957523.290
        33.250           7.000
 110280784.312 8  85933081.65546  20985733.581    20985733.488    20985733.858
        49.250          40.500
 103895571.066 6  80807691.874 6  19428989.238                    19428996.044
        39.250          36.500
 103332969.756 7  80370139.164 7  19384998.003                    19385007.952
        42.000          43.000
 109703367.808 6  85324884.442 7  20500692.451                    20500700.486
        41.750          44.250
 116905142.040 6  90926264.146 6  21877198.801                    21877208.880
        37.000          39.750
 119254239.629 6  92753338.614 5  22293318.811                    22293329.883
        36.000          33.750
 17  1 13  0 55 30.0000000  0 15G24G28G06G02G19R13G15G12G13G17R24R14
                                R17R15R23
 115925751.367 7  90331771.21045  22059932.356    22059932.400    22059935.545
        45.750          34.250
 120536402.440 6  93924476.05243  22937319.991    22937319.227    22937320.836
        41.250          23.250
 110714666.605 8  86271203.81946  21068297.199    21068297.400    21068301.005
        49.250          40.500
 120735933.835 7  94079938.69444  22975276.202    22975275.532    22975275.442
        42.750          26.750
 109725662.104 8  85500518.31847  20880095.865    20880094.918    20880094.023
        50.000          44.000
 110276128.081 6  85770351.032 7  20651176.936                    20651184.967
        39.000          44.500
 126475335.728 6  98552201.19242  24067460.298    24067460.374    24067460.517
        37.750          15.000
 127146367.064 6  99075108.80843  24195149.456    24195149.202    24195151.044
        38.250          19.500
 125983735.183 6  98169111.93341  23973912.470    23973912.149    23973912.734
        36.750           7.500
 110344804.684 8  85982967.63946  20997916.449    20997916.356    20997916.736
        49.500          40.250
 103935701.905 6  80838904.737 6  19436494.101                    19436500.804
        39.500          36.000
 103288902.395 7  80335864.545 7  19376730.348                    19376740.950
        42.250          43.000
 109626605.826 7  85265180.712 7  20486348.478                    20486355.705
        42.000          44.750
 116795144.616 6  90840710.636 6  21856614.224                    21856624.455
        36.750          40.000
 119369074.793 5  92842654.799 5  22314787.120                    22314797.951
        34.500          33.750
 17  1 13  0 56  0.0000000  0 16G30G24G28G06G02G19R13G15G12G13G17R24
                                R14R17R15R23
 130966641.80715                  24922121.833
        32.500
 115854574.785 7  90276308.96745  22046387.883    22046387.914    22046391.040
        45.500          34.250
 120613282.295 7  93984382.37744  22951950.116    22951949.356    22951950.733
        42.750          24.500
 110654968.379 8  86224685.74146  21056937.118    21056937.319    21056940.660
        49.500          40.500
 120620254.882 7  93989799.32244  22953263.625    22953262.910    22953262.320
        43.000          24.750
 109754226.217 8  85522776.05947  20885531.351    20885530.412    20885529.593
        50.250          43.500
 110349706.914 6  85827578.999 7  20664955.535                    20664963.798
        38.000          44.250
 126532714.228 5  98596911.64842  24078376.289    24078376.324    24078379.213
        33.250          12.500
 127070843.232 6  99016259.09643  24180776.990    24180776.883    24180779.620
        37.750          18.750
 126069910.784 5  98236261.6484   23990309.535    23990309.299    23990311.654
        33.250           4.000
 110409095.157 8  86033064.09646  21010150.648    21010150.555    21010150.751
        49.750          40.250
 103976425.632 6  80870578.741 6  19444109.153                    19444116.429
        39.250          36.750
 103245364.122 7  80302001.452 7  19368563.050                    19368573.397
        42.750          43.250
 109550392.859 6  85205903.981 7  20472105.694                    20472113.538
        41.500          44.750
 116685286.416 6  90755265.416 6  21836056.771                    21836065.951
        37.500          40.000
 119484033.104 6  92932066.779 5  22336276.835                    22336287.236
        36.500          33.500
 17  1 13  0 56 30.0000000  0 16G30G24G28G06G02G19R13G15G12G13G17R24
                                R14R17R15R23
 131075613.572 5                  24942858.325
        31.500
 115783806.832 7  90221165.12945  22032921.574    22032921.596    22032924.346
        46.250          34.500
 120690311.579 7  94044405.16743  22966607.978    22966607.276    22966608.403
        42.250          23.500
 110595759.894 8  86178549.27446  21045669.828    21045670.029    21045673.732
        49.500          40.750
 120504717.172 6  93899770.02444  22931277.337    22931276.604    22931275.700
        41.750          24.000
 109783090.439 8  85545267.64947  20891024.091    20891023.152    20891022.387
        50.000          43.500
 110423808.267 6  85885213.342 7  20678831.972                    20678840.491
        37.750          43.500
 126590313.258 5  98641793.96042  24089337.407    24089337.474    24089340.153
        33.000          13.250
 126995278.319 6  98957377.37342  24166397.907    24166397.818    24166399.476
        38.000          17.750
 126156130.987 5                  24006716.356
        34.500
 110473653.505 8  86083369.28246  21022436.001    21022435.908    21022435.961
        50.000          40.250
 104017739.504 6  80902711.731 6  19451836.095                    19451842.266
        39.250          36.500
 103202358.122 7  80268552.346 7  19360494.928                    19360505.472
        42.500          43.250
 109474730.316 6  85147055.369 7  20457966.008                    20457974.370
        41.250          44.750
 116575571.162 6  90669931.372 6  21815523.509                    21815533.534
        37.500          40.250
 119599110.766 6  93021571.595 5  22357789.744                    22357798.598
        37.000          32.250
 17  1 13  0 57  0.0000000  0 15G24G28G06G02G19R13G15G12G13G17R24R14
                                R17R15R23
 115713450.132 7  90166341.75045  22019532.642    22019532.650    22019535.928
        45.750          34.750
 120767490.392 6  94104544.43943  22981293.744    22981293.029    22981295.532
        40.750          22.000
 110537043.460 8  86132796.22746  21034496.665    21034496.870    21034500.475
        49.500          40.750
 120389324.113 6  93809853.36744  22909318.008    22909317.293    22909317.516
        39.000          26.000
 109812253.219 8  85567991.89147  20896573.549    20896572.610    20896571.898
        50.000          43.000
 110498431.186 6  85943253.359 7  20692806.584                    20692815.080
        38.500          43.500
 126648129.920 6  98686845.89743  24100341.990    24100341.990    24100342.880
        37.750          18.750
 126919672.747 6  98898464.00143  24152010.072    24152010.032    24152012.281
        38.250          19.500
 126242392.840 5  98370716.0694   24023132.237    24023131.965    24023133.856
        31.500           4.000
 110538476.995 8  86133881.08246  21034771.151    21034771.053    21034771.303
        49.500          40.000
 104059640.748 6  80935301.585 6  19459671.330                    19459678.113
        39.500          36.250
 103159887.178 7  80235519.380 7  19352527.727                    19352537.958
        42.750          43.250
 109399619.789 7  85088636.076 7  20443930.448                    20443937.544
        42.500          44.500
 116466002.348 6  90584711.223 6  21795020.082                    21795029.589
        37.750          40.750
 119714304.724 5  93111166.838 5  22379323.715                    22379334.867
        35.750          33.250
 17  1 13  0 57 30.0000000  0 15G24G28G06G02G19R13G15G12G13G17R24R14
                                R17R15R23
 115643507.132 7  90111840.73945  22006222.938    22006222.934    22006226.309
        46.000          35.000
 120844818.898 7  94164800.40143  22996010.314    22996009.577    22996010.399
        42.500          23.000
 110478821.414 8  86087428.42346  21023417.116    21023417.317    21023421.095
        49.500          40.750
 120274078.730 6  93720051.85143  22887389.216    22887388.519    22887387.065
        41.500          23.000
 109841713.044 8  85590947.58947  20902179.921    20902178.978    20902177.788
        50.500          43.500
 110573574.573 6  86001698.186 7  20706879.093                    20706887.531
        38.250          44.000
 126706161.586 6  98732065.26342  24111383.320    24111383.303    24111385.981
        37.000          16.750
 126844027.127 6  98839519.44143  24137615.758    24137615.718    24137617.323
        39.250          20.000
 126328693.492 5  98437963.31841  24039555.603    24039555.541    24039557.007
        34.750           8.000
 110603563.798 8  86184598.05246  21047156.669    21047156.571    21047156.933
        49.500          40.000
 104102126.114 6  80968345.741 6  19467616.728                    19467622.505
        39.750          37.000
 103117954.649 7  80202905.199 7  19344661.552                    19344671.632
        43.000          43.250
 109325062.724 7  85030647.280 7  20429997.337                    20430005.207
        42.250          45.000
 116356583.399 6  90499607.635 6  21774543.472                    21774553.184
        37.750          40.500
 119829611.563 6  93200849.895 5  22400879.243                    22400889.103
        36.500          32.000
 17  1 13  0 58  0.0000000  0 15G24G28G06G02G19R13G15G12G13G17R24R14
                                R17R15R23
 115573980.153 7  90057663.88145  21992992.600    21992992.604    21992995.784
        46.000          35.000
 120922296.819 7  94225172.78443  23010753.491    23010752.803    23010754.041
        42.000          23.500
 110421095.755 8  86042447.41146  21012432.629    21012432.830    21012436.103
        49.500          40.750
 120158983.492 7  93630367.26944  22865486.113    22865485.425    22865485.031
        42.500          25.000
 109871468.293 8  85614133.49747  20907841.988    20907841.045    20907840.200
        50.000          43.250
 110649237.509 6  86060547.119 7  20721048.628                    20721056.538
        39.000          43.500
 126764405.461 6  98777450.04842  24122467.359    24122467.372    24122469.488
        37.750          17.000
 126768341.618 6  98780543.75743  24123213.418    24123213.351    24123214.714
        40.000          20.250
 126415029.988 5  98505238.45341  24055984.506    24055984.359    24055986.715
        34.500          11.750
 110668912.003 8  86235518.73046  21059591.898    21059591.805    21059592.332
        49.250          40.000
 104145192.671 6  81001841.940 6  19475669.503                    19475676.519
        39.000          36.500
 103076563.654 7  80170712.185 7  19336896.191                    19336906.914
        42.500          43.250
 109251060.681 6  84973090.179 7  20416168.097                    20416176.267
        41.500          45.250
 116247317.840 6  90414623.365 6  21754095.869                    21754106.408
        37.750          41.500
 119945028.267 6  93290618.393 5  22422456.185                    22422465.773
        36.000          33.000
 17  1 13  0 58 30.0000000  0 15G24G28G06G02G19R13G15G12G13G17R24R14
                                R17R15R23
 115504871.722 7  90003813.17945  21979841.688    21979841.692    21979844.867
        46.500          35.000
 120999923.736 7  94285661.23843  23025525.666    23025524.987    23025525.997
        43.000          23.250
 110363868.557 8  85997854.80046  21001542.260    21001542.456    21001546.186
        49.750          41.000
 120044041.647 6  93540802.24143  22843613.126    22843612.420    22843612.420
        40.750          22.750
 109901517.004 8  85637548.06047  20913559.803    20913558.864    20913558.430
        49.750          43.250
 110725418.775 6  86119799.187 7  20735314.436                    20735322.646
        38.000          43.500
 126822858.439 6  98822997.76542  24133591.102    24133591.191    24133592.631
        38.750          17.500
 126692616.118 6  98721536.88943  24108803.681    24108803.610    24108804.338
        41.250          22.750
 126501399.361 5  98572539.14841  24072420.026    24072419.821    24072422.208
        33.750          10.500
 110734519.078 8  86286641.11046  21072076.481    21072076.383    21072076.991
        49.500          39.750
 104188837.354 6  81035787.808 6  19483831.386                    19483838.362
        39.500          36.500
 103035717.044 7  80138942.612 7  19329233.855                    19329244.163
        42.500          43.750
 109177614.660 7  84915965.536 7  20402442.729                    20402451.064
        42.000          45.500
 116138208.998 6  90329760.963 6  21733677.863                    21733687.370
        37.750          40.500
 120060551.097 6  93380469.455 5  22444052.580                    22444061.684
        37.500          33.500
 17  1 13  0 59  0.0000000  0 15G24G28G06G02G19R13G15G12G13G17R24R14
                                R17R15R23
 115436184.152 7  89950290.40845  21966770.898    21966770.894    21966773.845
        46.250          35.250
 121077699.267 6  94346265.49543  23040325.413    23040324.734    23040326.074
        41.500          22.250
 110307141.764 8  85953652.13046  20990747.589    20990747.790    20990751.448
        49.500          41.250
 119929256.320 6  93451359.23742  22821769.071    22821768.387    22821769.460
        37.750          17.750
 109931857.125 8  85661189.71747  20919333.481    20919332.542    20919331.643
        50.000          43.000
 110802116.110 6  86179452.640 7  20749677.172                    20749685.525
        38.250          44.000
 126881517.093 5  98868705.74842  24144751.511    24144751.449    24144755.402
        34.500          15.500
 126616850.820 6  98662499.07643  24094385.533    24094385.449    24094387.291
        40.750          23.750
 126587798.485 6  98639863.10642  24088861.726    24088861.427    24088863.264
        37.000          12.500
 110800382.524 8  86337963.26446  21084610.157    21084610.064    21084610.345
        49.250          40.000
 104233057.030 6  81070180.899 6  19492100.990                    19492107.483
        39.500          36.250
 102995417.389 7  80107598.436 7  19321673.598                    19321684.102
        42.500          43.250
 109104726.022 6  84859274.411 7  20388821.809                    20388829.764
        41.750          44.750
 116029260.178 6  90245023.059 6  21713289.075                    21713299.141
        36.750          41.000
 120176176.889 6  93470400.553 5  22465666.020                    22465676.863
        36.000          34.250
 17  1 13  0 59 30.0000000  0 15G24G28G06G02G19R13G15G12G13G17R24R14
                                R17R15R23
 115367920.186 7  89897097.72245  21953780.598    21953780.598    21953783.826
        46.500          35.000
 121155623.922 7  94406985.94943  23055155.129    23055154.432    23055155.196
        42.000          23.750
 110250917.728 8  85909841.20646  20980048.418    20980048.623    20980052.326
        50.000          41.250
 119814630.528 7  93362040.44944  22799957.954    22799957.288    22799956.894
        44.000          27.750
 109962488.260 8  85685058.13147  20925162.317    20925161.378    20925160.609
        50.000          43.000
 110879329.209 6  86239507.254 7  20764136.982                    20764145.585
        38.250          44.000
 126940379.658 6  98914572.66942  24155954.451    24155954.384    24155956.508
        37.250          16.500
 126541046.843 7  98603431.06843  24079961.385    24079961.314    24079962.310
        42.250          23.500
 126674224.616 6  98707208.09342  24105308.519    24105308.403    24105309.753
        40.000          15.250
 110866500.741 8  86389483.93446  21097191.975    21097191.882    21097192.368
        49.750          39.750
 104277848.691 6  81105018.851 6  19500477.685                    19500483.780
        39.250          36.750
 102955668.014 7  80076682.260 7  19314217.007                    19314227.019
        42.750          43.500
 109032396.169 7  84803017.879 7  20375305.820                    20375313.167
        42.250          45.250
 115920475.342 6  90160412.671 6  21692931.343                    21692941.386
        37.250          40.500
 120291902.189 5  93560409.062 5  22487299.511                    22487310.435
        34.500          33.250
 17  1 13  1  0  0.0000000  0 15G24G28G06G02G19R13G15G12G13G17R24R14
                                R17R15R23
 115300081.843 7  89844236.68445  21940871.448    21940871.444    21940874.605
        46.250          35.750
 121233697.432 6  94467822.39844  23070011.916    23070011.206    23070012.121
        41.750          24.250
 110195198.281 8  85866423.47146  20969445.731    20969445.936    20969449.407
        50.000          41.250
 119700167.073 6  93272848.17844  22778176.336    22778175.652    22778174.937
        41.500          24.000
 109993408.264 8  85709151.64047  20931046.257    20931045.318    20931044.661
        50.000          43.000
 110957056.418 6  86299961.721 7  20778692.820                    20778701.141
        38.000          44.250
 126999442.834 6  98960595.87442  24167192.832    24167192.756    24167195.663
        36.000          15.500
 126465204.170 6  98544332.92743  24065528.123    24065528.034    24065529.026
        41.500          22.750
 126760674.529 6  98774571.57642  24121758.510    24121758.434    24121760.683
        37.500          14.500
 110932871.420 8  86441201.33946  21109821.925    21109821.836    21109822.176
        49.500          39.750
 104323209.090 6  81140299.146 6  19508960.013                    19508966.019
        39.000          36.250
 102916471.832 7  80046196.335 7  19306863.996                    19306873.766
        42.750          43.250
 108960626.395 7  84747196.987 7  20361893.850                    20361901.631
        42.500          45.500
 115811857.346 6  90075932.058 6  21672604.634                    21672615.027
        37.500          41.000
 120407723.837 5  93650492.556 5  22508951.925                    22508963.230
        35.500          34.000
