     2.10           O                   M                   RINEX VERSION / TYPE
rinexobstc v2.2     T&F Group            14-Jan-17 00:25:12 PGM / RUN BY / DATE
National Measurement Institute, Sydney, Australia           COMMENT
SYDN                                                        MARKER NAME
50124M003                                                   MARKER NUMBER
Time and Frequency  National Measurement Institute          OBSERVER / AGENCY
AGE3MUO7TA8         JPS E_GGD           v2.7.0              REC # / TYPE / VERS
CR519994908         ASH701945C_M    NONE                    ANT # / TYPE
 -4648240.3900  2560636.5470 -3526318.5890                  APPROX POSITION XYZ
        0.0300        0.0000        0.0000                  ANTENNA: DELTA H/E/N
     1       1        0                                     WAVELENGTH FACT L1/2
     5    L1    L2    C1    P1    P2                        # / TYPES OF OBSERV
    30.000                                                  INTERVAL
  2017     1    13     0     0   30.0000000     GPS         TIME OF FIRST OBS
                                                            END OF HEADER
 17  1 13  0  0 30.0000000  0 14R24G17G15G06R14G13R13R17G28R23G01G30
                                G24G19
 103582216.04040  80563980.93140  19370391.86600  19370391.41040  19370397.41640
 105412827.12240  82139878.57840  20059392.77900  20059393.04640  20059397.00740
 122118531.53040  95157309.05440  23238382.86000  23238383.31640  23238389.14040
 119689915.24140  93264891.74340  22776230.67400  22776232.81040  22776240.02940
 110596472.18440  86019499.44440  20747608.46100  20747607.84240  20747618.75940
 117474020.39840  91538208.59840  22354566.59400  22354567.03540  22354570.31440
 105479713.19740  82039793.78440  19752959.35000  19752958.97540  19752967.30640
 120907729.11140  94039379.50340  22594500.26800  22594499.88640  22594507.69040
 113025972.05340  88072192.36140  21508125.92100  21508125.21040  21508130.53940
 108295737.63240  84230044.17240  20244738.75700  20244738.65040  20244748.55640
 128379638.17140 100036077.03440  24429829.34600  24429829.22840  24429836.76040
 119700498.62740  93273108.92140  22778244.64900  22778244.86040  22778251.93040
 125662370.17540  97918736.19740  23912751.39200  23912749.96540  23912755.12840
 108758258.59440  84746732.20540  20696006.21300  20696004.93740  20696007.43240
 17  1 13  0  1  0.0000000  0 14R24G17G15G06R14G13R13R17G28R23G01G30
                                G24G19
 103545719.51140  80535594.76040  19363565.70800  19363565.91340  19363572.28040
 105434273.02640  82156589.66740  20063473.92400  20063473.82440  20063477.91240
 122135962.48540  95170891.60340  23241700.41200  23241700.77040  23241705.38140
 119592489.03240  93188975.27240  22757693.17500  22757693.20740  22757700.66440
 110513997.42040  85955352.42740  20732136.76900  20732136.35840  20732146.49240
 117536655.49040  91587015.12340  22366486.47300  22366485.81840  22366489.63640
 105494293.03340  82051133.65340  19755690.36500  19755689.62240  19755697.81440
 120784367.86140  93943431.93240  22571444.90210  22571445.46840  22571454.29040
 113085495.36940  88118574.14940  21519453.39300  21519452.87740  21519456.54840
 108374556.73040  84291347.90640  20259473.37800  20259472.74040  20259482.72140
 128443630.19240 100085940.94040  24442006.91200  24442006.64840  24442015.30340
 119790853.82440  93343515.54040  22795438.88600  22795440.07640  22795445.77440
 125562006.72840  97840530.93740  23893650.95500  23893651.53340  23893659.39940
 108745047.00040  84736437.45440  20693492.03200  20693490.72640  20693493.25840
 17  1 13  0  1 30.0000000  0 14R24G17G15G06R14G13R13R17G28R23G01G30
                                G24G19
 103509968.54340  80507788.46140  19356880.92100  19356880.30340  19356886.70640
 105456219.32540  82173690.67640  20067650.11400  20067650.35340  20067654.33040
 122153871.55140  95184846.67740  23245108.99100  23245108.30440  23245113.03840
 119495245.24640  93113200.94240  22739187.18500  22739187.67740  22739194.83640
 110431705.72540  85891347.80640  20716698.36200  20716697.93040  20716709.21140
 117599666.71240  91636114.73540  22378476.65100  22378476.60540  22378480.75840
 105509375.72840  82062864.63240  19758515.40000  19758514.20140  19758522.40740
 120661283.32840  93847699.59140  22548445.58400  22548445.67240  22548453.33940
 113145186.82140  88165086.94740  21530812.95500  21530811.99140  21530816.26340
 108453920.47240  84353075.25440  20274309.01000  20274308.97540  20274318.87340
 128508037.30840 100136128.24240  24454261.99100  24454261.98940  24454270.27540
 119881474.22440  93414128.77140  22812684.13800  22812685.14940  22812689.80540
 125461769.88840  97762424.33640  23874575.64600  23874576.48740  23874584.10240
 108732276.53940  84726486.44140  20691061.39000  20691060.27740  20691063.19040
 17  1 13  0  2  0.0000000  0 14R24G17G15G06R14G13R13R17G28R23G01G30
                                G24G19
 103474964.15840  80480562.84840  19350333.46000  19350334.30640  19350340.72840
 105478664.39840  82191180.33640  20071921.62900  20071921.47640  20071925.35940
 122172257.57440  95199173.41640  23248608.02600  23248607.37240  23248612.99040
 119398187.09940  93037571.27940  22720717.53900  22720717.86540  22720726.07240
 110349599.75240  85827487.62540  20701295.45600  20701294.84940  20701306.28240
 117663051.46340  91685505.41040  22390538.19200  22390537.51240  22390542.71140
 105524962.65540  82074987.79540  19761434.08500  19761432.88540  19761441.20240
 120538478.89540  93752185.09640  22525495.25910  22525494.86640  22525503.89440
 113205046.10940  88211730.52340  21542203.57000  21542202.69240  21542207.63840
 108533824.86540  84415223.10140  20289246.50600  20289246.17840  20289255.99940
 128572857.85040 100186637.69140  24466597.74300  24466598.28640  24466605.25640
 119972358.30140  93484947.51240  22829977.52000  22829976.59640  22829985.34640
 125361662.89340  97684418.93340  23855526.22000  23855527.26740  23855535.92540
 108719946.39040  84716878.53540  20688715.54400  20688714.31340  20688717.07140
 17  1 13  0  2 30.0000000  0 14R24G17G15G06R14G13R13R17G28R23G01G30
                                G24G19
 103440706.49540  80453918.01040  19343928.49700  19343927.89040  19343934.13540
 105501606.15440  82209057.02240  20076287.38600  20076287.36640  20076291.14340
 122191118.61640  95213870.31140  23252196.57700  23252196.79240  23252200.87540
 119301317.34540  92962088.35740  22702284.70400  22702284.61040  22702292.43940
 110267682.37940  85763774.13240  20685928.20700  20685928.37840  20685938.38040
 117726806.34440  91735184.50140  22402670.31700  22402670.10240  22402674.74040
 105541054.67840  82087503.80640  19764447.70800  19764446.36940  19764455.12740
 120415957.27640  93656890.55440  22502598.89800  22502600.62040  22502608.28640
 113265072.34440  88258504.20440  21553626.69500  21553625.35040  21553629.53740
 108614265.55640  84477788.06840  20304283.94800  20304283.83340  20304293.33840
 128638089.41740 100237467.41340  24479009.13700  24479010.38640  24479017.90540
 120063504.13940  93555970.19940  22847321.48600  22847322.05440  22847327.97240
 125261687.18340  97606515.82840  23836501.61900  23836502.75640  23836509.14740
 108708055.43840  84707612.86140  20686452.75800  20686451.31940  20686454.27440
 17  1 13  0  3  0.0000000  0 14R24G17G15G06R14G13R13R17G28R23G01G30
                                G24G19
 103407195.54640  80427853.96040  19337661.63400  19337661.42540  19337667.26840
 105525042.80540  82227319.34040  20080746.56900  20080746.81840  20080750.80840
 122210452.98040  95228936.01540  23255875.40700  23255875.54640  23255880.85740
 119204638.92140  92886754.52240  22683887.69400  22683888.47540  22683894.37240
 110185956.38440  85700209.48740  20670596.51000  20670596.02140  20670607.04940
 117790928.80740  91785150.02740  22414871.99700  22414872.12440  22414877.70440
 105557653.24540  82100413.79640  19767556.13300  19767555.00540  19767563.12240
 120293721.80740  93561818.57540  22479758.13700  22479757.06840  22479764.73240
 113325265.42640  88305407.89740  21565080.54900  21565080.06540  21565084.58340
 108695238.86740  84540767.29140  20319420.62900  20319420.71140  20319430.57740
 128703729.97640 100288615.85940  24491501.75700  24491501.43740  24491509.62640
 120154910.27840  93627195.66840  22864716.96700  22864716.92340  22864727.61640
 125161844.91440  97528716.65840  23817502.36100  23817503.25040  23817509.93540
 108696603.01340  84698688.89940  20684272.99100  20684271.92540  20684274.69040
 17  1 13  0  3 30.0000000  0 13R24G17G15G06R14G13R13R17G28R23G01G24
                                G19
 103374432.45140  80402371.55940  19331533.50300  19331534.47340  19331540.76240
 105548972.77040  82245966.06440  20085301.07900  20085300.86540  20085304.57240
 122230259.45540  95244369.60940  23259646.76300  23259644.98640  23259649.78340
 119108155.29740  92811572.50040  22665526.77500  22665527.70840  22665535.43040
 110104424.43040  85636795.75740  20655301.06700  20655301.52440  20655312.49440
 117855416.39640  91835400.02740  22427144.02400  22427144.06640  22427148.02940
 105574760.06040  82113719.09740  19770759.82000  19770758.73640  19770767.01840
 120171775.91640  93466971.82140  22456968.15100  22456968.77240  22456977.29840
 113385625.31240  88352441.56340  21576566.49300  21576565.83840  21576570.52540
 108776741.03940  84604157.86640  20334657.54900  20334656.97140  20334666.79440
 128769778.07340 100340081.89040  24504070.05400  24504070.66440  24504078.05040
 125062139.19740  97451023.93540  23798529.59000  23798529.60140  23798536.80240
 108685588.59640  84690106.24240  20682177.01000  20682175.83540  20682178.65440
 17  1 13  0  4  0.0000000  0 13R24G17G15G06R14G13R13R17G28R23G01G24
                                G19
 103342417.35140  80377470.94340  19325548.07000  19325547.34240  19325553.93040
 105573394.01440  82264995.60340  20089947.94500  20089947.95440  20089952.03040
 122250536.12740  95260169.59040  23263503.02100  23263502.77540  23263508.53640
 119011869.16340  92736544.38040  22647203.86900  22647204.35740  22647212.62140
 110023089.85040  85573535.55440  20640043.09100  20640042.50840  20640054.09940
 117920265.86540  91885932.06340  22439484.32100  22439483.80540  22439488.87140
 105592376.26340  82127420.58140  19774058.74400  19774057.43140  19774065.84740
 120050122.20440  93372352.30540  22434234.57100  22434235.20640  22434242.09740
 113446151.27540  88399604.62540  21588084.84000  21588083.83640  21588088.24040
 108858767.65840  84667956.34240  20349991.42600  20349991.25440  20350000.51640
 128836231.25540 100391863.55540  24516715.43100  24516715.49140  24516724.06740
 124962572.17140  97373439.25240  23779581.97200  23779583.33440  23779589.19340
 108675010.99840  84681863.95640  20680164.35000  20680163.29840  20680165.81340
 17  1 13  0  4 30.0000000  0 13R24G17G15G06R14G13R13R17G28R23G01G24
                                G19
 103311150.50240  80353152.29840  19319700.62600  19319700.19040  19319706.66240
 105598305.31940  82284407.00240  20094688.45500  20094688.35940  20094692.17140
 122271281.87940  95276335.10140  23267450.53700  23267451.28940  23267455.65640
 118915784.08240  92661672.94440  22628920.08200  22628920.88440  22628927.91840
 109941956.01340  85510431.48540  20624822.16500  20624822.15740  20624833.26240
 117985474.76040  91936744.18140  22451893.35700  22451893.20640  22451897.49640
 105610503.36340  82141519.43240  19777453.07300  19777452.22040  19777460.63940
 119928764.52540  93277963.05640  22411556.43700  22411556.50440  22411563.65340
 113506843.70540  88446897.41140  21599633.45600  21599632.83840  21599637.24940
 108941315.29940  84732160.03740  20365422.80700  20365422.50240  20365432.41440
 128903088.06140 100443959.73440  24529437.38700  24529437.12340  24529444.67440
 124863146.39540  97295964.65840  23760662.80200  23760663.18140  23760670.30240
 108664870.12540  84673961.98540  20678234.65400  20678233.62840  20678236.27640
 17  1 13  0  5  0.0000000  0 14R24G17G15G06R14G13R13R17G28R23G01G30
                                G24G19
 103280632.25440  80329415.90040  19313993.61700  19313993.31440  19313999.64340
 105623704.50940  82304198.57940  20099521.80100  20099521.67240  20099525.62940
 122292494.51240  95292864.40640  23271486.97600  23271487.95940  23271492.98940
 118819902.70240  92586960.22240  22610673.54000  22610674.40840  22610682.74340
 109861024.63140  85447484.87440  20609639.11000  20609638.75140  20609650.31540
 118051040.18340  91987834.08240  22464370.42900  22464370.40140  22464374.39540
 105629142.12940  82156016.24640  19780944.35100  19780942.66240  19780950.97640
 119807705.43240  93183806.00140  22388933.99100  22388934.00240  22388941.27940
 113567702.20640  88494319.61240  21611214.55000  21611214.12240  21611218.29240
 109024379.57540  84796765.57440  20380950.33700  20380950.52340  20380960.83340
 128970346.00540 100496368.44540  24542238.98300  24542237.77940  24542247.13340
         0.00040         0.00040  22934780.79100         0.00040         0.00040
 124763863.91240  97218601.68440  23741769.36600  23741768.84840  23741777.04240
 108655164.93440  84666399.49740  20676387.56700  20676386.59740  20676389.42240
 17  1 13  0  5 30.0000000  0 14R24G17G15G06R14G13R13R17G28R23G01G30
                                G24G19
 103250863.02340  80306262.07140  19308426.71100  19308426.17540  19308432.67440
 105649590.37340  82324369.38340  20104447.41500  20104447.48940  20104451.47040
 122314172.66140  95309756.45140  23275613.42000  23275613.65340  23275618.38740
 118724228.29940  92512408.76640  22592467.85300  22592468.29840  22592475.25540
 109780299.47540  85384698.65240  20594496.35900  20594495.58040  20594506.72040
 118116959.22740  92039199.52340  22476914.84200  22476914.38740  22476918.39440
 105648294.00340  82170912.13740  19784530.57600  19784529.05540  19784537.30640
 119686948.31340  93089883.85140  22366369.37600  22366367.97440  22366375.99140
 113628726.58740  88541871.05440  21622826.45300  21622825.90440  21622831.44540
 109107956.87740  84861770.12740  20396574.48000  20396574.37840  20396584.36340
 129038003.40840 100549088.44940  24555111.73500  24555111.31940  24555121.01940
         0.00040         0.00040  22952421.61100         0.00040         0.00040
 124664727.90840  97141352.92340  23722905.36100  23722904.63940  23722912.11540
 108645894.90640  84659176.10940  20674623.36300  20674622.54040  20674625.28240
 17  1 13  0  6  0.0000000  0 14R24G17G15G06R14G13R13R17G28R23G01G30
                                G24G19
 103221842.84740  80283690.83640  19302999.51100  19302999.07440  19303005.97740
 105675960.49040  82344917.52540  20109465.45100  20109465.58240  20109469.55140
 122336314.91340  95327010.12040  23279826.14000  23279826.62740  23279832.37140
 118628763.86940  92438020.92540  22574301.93800  22574302.84440  22574308.71540
 109699783.19240  85322074.90240  20579390.18600  20579390.56640  20579401.80840
 118183228.91140  92090838.24340  22489525.51100  22489525.13840  22489528.57140
 105667960.32440  82186208.17040  19788212.49800  19788211.67640  19788220.31540
 119566496.25040  92996198.97640  22343856.60200  22343856.99940  22343865.94440
 113689916.34040  88589551.36340  21634470.82200  21634470.36240  21634475.09440
 109192042.97840  84927170.40940  20412294.43000  20412293.62640  20412303.65840
 129106058.05340 100602118.01540  24568060.51000  24568061.57340  24568070.23840
         0.00040         0.00040  22970106.00700         0.00040         0.00040
 124565740.31440  97064219.78940  23704068.31800  23704068.39140  23704075.85840
 108637058.89440  84652290.90740  20672942.36500  20672941.18240  20672943.95940
 17  1 13  0  6 30.0000000  0 14R24G17G15G06R14G13R13R17G28R23G01G30
                                G24G19
 103193572.01440  80261702.43140  19297712.52600  19297712.14640  19297718.77040
 105702812.94840  82365841.52240  20114575.60400  20114575.66940  20114579.29440
 122358918.94340  95344623.61340  23284129.74800  23284128.52640  23284133.16640
 118533512.47040  92363799.11540  22556176.18700  22556176.25240  22556183.44640
 109619479.23440  85259616.29240  20564325.89300  20564326.00440  20564337.42440
 118249846.49140  92142748.03140  22502201.72900  22502201.84440  22502206.21040
 105688142.14340  82201905.13040  19791992.38300  19791991.64440  19791999.89840
 119446352.33840  92902753.75640  22321405.48900  22321405.99940  22321413.97940
 113751271.16340  88637360.30640  21646146.96800  21646146.41540  21646149.59240
 109276633.89840  84992963.32540  20428106.06800  20428106.53240  20428116.74840
 129174508.04940 100655455.57640  24581088.35600  24581089.93240  24581096.38340
         0.00040         0.00040  22987838.70100         0.00040         0.00040
 124466903.20840  96987203.86740  23685259.24100  23685260.52440  23685267.23840
 108628655.54240  84645742.84640  20671343.31400  20671342.12440  20671344.81940
 17  1 13  0  7  0.0000000  0 14R24G17G15G06R14G13R13R17G28R23G01G30
                                G24G19
 103166050.98840  80240297.19440  19292566.03100  19292566.05840  19292572.38240
 105730146.27440  82387140.21640  20119777.11700  20119777.07240  20119780.77040
 122381983.18540  95362595.73840  23288516.15900  23288517.11540  23288521.38940
 118438477.39340  92289745.86340  22538091.28400  22538091.95440  22538099.14840
 109539390.12340  85197324.76340  20549301.98200  20549301.67440  20549313.19840
 118316809.54140  92194927.00440  22514944.75600  22514944.53740  22514948.77740
 105708841.12940  82218004.33340  19795868.87500  19795867.67040  19795876.34140
 119326520.01540  92809550.91040  22299012.88100  22299012.76640  22299020.44340
 113812790.99340  88685297.81140  21657853.33900  21657852.64540  21657857.20540
 109361726.11340  85059146.15140  20444014.70300  20444013.91440  20444024.62240
 129243351.46440 100709099.75140  24594186.26000  24594187.28940  24594198.36540
         0.00040         0.00040  23005617.46710         0.00040         0.00040
 124368219.55040  96910307.57040  23666479.03100  23666480.78440  23666489.06140
 108620684.62540  84639531.74840  20669826.20400  20669825.46540  20669827.68140
 17  1 13  0  7 30.0000000  0 14R24G17G15G06R14G13R13R17G28R23G01G30
                                G24G19
 103139279.48340  80219474.93640  19287558.87500  19287559.15740  19287566.11240
 105757958.49440  82408812.07640  20125069.32300  20125069.24940  20125073.43540
 122405506.48840  95380925.57340  23292993.46800  23292994.08640  23292997.50140
 118343661.53140  92215863.39940  22520048.29800  22520049.02340  22520056.52740
 109459518.94940  85135202.75640  20534318.19500  20534318.87740  20534329.15540
 118384114.85540  92247372.66840  22527753.44800  22527752.75740  22527756.54040
 105730057.97140  82234506.31240  19799841.35800  19799840.86840  19799849.49940
 119207002.05940  92716592.57840  22276675.55100  22276677.16140  22276685.08040
 113874475.28340  88733363.46640  21669590.92300  21669591.06940  21669595.27040
 109447315.18540  85125715.40440  20460014.04500  20460013.67740  20460023.79840
 129312586.00740 100763048.71740  24607363.36800  24607363.84640  24607369.99640
         0.00040         0.00040  23023442.05110         0.00040         0.00040
 124269691.76540  96833532.73140  23647731.25200  23647731.32840  23647739.50240
 108613145.22340  84633656.88640  20668391.78400  20668390.65140  20668393.07840
 17  1 13  0  8  0.0000000  0 14R24G17G15G06R14G13R13R17G28R23G01G30
                                G24G19
 103113257.50040  80199235.62140  19282693.26700  19282692.98340  19282699.34240
 105786247.87240  82430855.74640  20130452.88400  20130452.86640  20130456.73340
 122429486.71840  95399611.40840  23297557.19200  23297557.84940  23297561.95640
 118249068.06240  92142154.23040  22502046.91200  22502047.03240  22502054.24340
 109379868.99140  85073252.80240  20519376.77500  20519376.13640  20519386.88440
 118451759.62440  92300082.84740  22540625.63700  22540624.66640  22540629.43040
 105751793.96540  82251412.07440  19803911.86400  19803911.27340  19803919.71540
 119087801.80040  92623881.30240  22254402.11200  22254401.25640  22254410.84740
 113936324.48940  88781557.61540  21681360.34700  21681360.25540  21681364.97040
 109533397.31340  85192668.15740  20476105.65400  20476105.55440  20476116.10540
 129382209.94240 100817301.05940  24620612.94100  24620612.64940  24620620.47640
         0.00040         0.00040  23041319.35110         0.00040         0.00040
 124171321.84740  96756880.84340  23629013.68500  23629012.84740  23629019.77040
 108606036.37840  84628117.53240  20667038.37200  20667037.59240  20667040.55040
 17  1 13  0  8 30.0000000  0 14R24G17G15G06R14G13R13R17G28R23G01G30
                                G24G19
 103087985.52640  80179579.65140  19277967.51200  19277967.56140  19277973.32340
 105815012.27640  82453269.56440  20135926.10200  20135926.24340  20135930.25540
 122453922.07040  95418651.93740  23302206.21200  23302206.90440  23302211.62240
 118154700.04840  92068620.75240  22484089.52300  22484089.60940  22484097.92140
 109300442.58740  85011476.71240  20504475.36300  20504475.68040  20504486.35840
 118519741.02440  92353055.33640  22553560.45800  22553560.58240  22553565.82040
 105774050.13940  82268722.42340  19808080.02900  19808078.97640  19808087.55540
 118968922.20840  92531419.38540  22232184.54600  22232186.09640  22232193.81440
 113998337.94640  88829879.74940  21693161.95600  21693161.74240  21693165.30140
 109619968.43340  85260001.23240  20492289.91300  20492289.52240  20492299.56140
 129452221.09940 100871855.15540  24633933.01000  24633935.11340  24633942.59540
         0.00040         0.00040  23059234.32500         0.00040         0.00040
 124073113.00240  96680354.54640  23610325.13900  23610323.67640  23610331.82640
 108599357.47540  84622913.19540  20665767.70800  20665766.77840  20665769.71740
 17  1 13  0  9  0.0000000  0 14R24G17G15G06R14G13R13R17G28R23G01G30
                                G24G19
 103063463.32240  80160506.84940  19273382.33400  19273381.20740  19273388.24640
 105844250.15140  82476052.32440  20141489.77700  20141489.98840  20141494.17140
 122478810.89940  95438045.80340  23306943.10800  23306944.09240  23306948.00840
 118060560.61340  91995265.38540  22466176.30900  22466176.43840  22466184.00140
 109221243.66340  84949877.55940  20489617.73900  20489618.27440  20489629.63640
 118588056.13640  92406287.85740  22566560.89500  22566560.96040  22566565.47340
 105796828.13440  82286438.62240  19812345.82700  19812345.10640  19812353.46940
 118850366.55540  92439209.48040  22210032.20900  22210030.84640  22210038.93540
 114060515.59440  88878329.84140  21704994.05800  21704993.83440  21704997.63540
 109707024.47040  85327711.46540  20508564.09900  20508563.82540  20508573.57840
 129522617.41940 100926709.42140  24647331.23500  24647332.73540  24647338.69440
         0.00040         0.00040  23077203.81900         0.00040         0.00040
 123975067.32540  96603955.35840  23591665.87000  23591665.39240  23591673.03140
 108593107.57940  84618043.15040  20664579.29900  20664577.93240  20664580.31640
 17  1 13  0  9 30.0000000  0 14R24G17G15G06R14G13R13R17G28R23G01G30
                                G24G19
 103039690.71540  80142017.05540  19268935.43800  19268936.05740  19268942.09240
 105873959.36940  82499202.36040  20147143.61300  20147143.65340  20147147.56940
 122504150.74540  95457791.11340  23311763.79400  23311764.98940  23311769.17840
 117966652.67340  91922090.42640  22448305.10900  22448305.73740  22448314.18440
 109142274.48640  84888457.09140  20474805.54100  20474804.52040  20474814.34340
 118656702.12140  92459778.21740  22579624.38400  22579623.25540  22579627.82340
 105820128.57540  82304561.17840  19816708.85700  19816708.37040  19816716.96740
 118732137.65940  92347253.73240  22187940.52200  22187938.12140  22187945.54640
 114122857.13840  88926907.64340  21716857.10100  21716856.57640  21716861.60940
 109794561.54340  85395795.84140  20524927.65300  20524927.62140  20524938.51840
 129593396.64640 100981862.00240  24660798.56600  24660797.47340  24660810.77540
         0.00040         0.00040  23095213.26100         0.00040         0.00040
 123877187.27740  96527685.20740  23573039.85800  23573039.83340  23573045.91640
 108587285.01540  84613506.09440  20663470.40400  20663469.44440  20663472.17540
 17  1 13  0 10  0.0000000  0 14R24G17G15G06R14G13R13R17G28R23G01G30
                                G24G19
 103016667.77540  80124110.32940  19264631.07900  19264630.61740  19264637.06340
 105904138.29240  82522718.40140  20152886.15100  20152886.22840  20152890.45840
 122529941.04440  95477887.39640  23316671.34900  23316672.37740  23316677.94140
 117872979.46640  91849098.35540  22430480.11800  22430480.29740  22430488.31140
 109063538.38040  84827217.90840  20460034.52200  20460033.64540  20460044.91840
 118725676.03140  92513524.10240  22592749.44900  22592749.74040  22592753.50940
 105843952.83440  82323091.14440  19821170.86300  19821169.47040  19821178.01640
 118614238.80140  92255554.61740  22165905.43200  22165906.10440  22165912.17040
 114185362.31440  88975612.96440  21728750.47600  21728750.69140  21728755.18940
 109882575.35140  85464251.00940  20541381.24900  20541381.18640  20541391.03540
 129664556.97440 101037311.48040  24674341.67100  24674344.63340  24674352.50240
         0.00040         0.00040  23113267.13100         0.00040         0.00040
 123779475.41140  96451546.11640  23554447.49300  23554447.27140  23554453.66240
 108581889.95040  84609302.15440  20662444.09000  20662443.01040  20662445.62540
 17  1 13  0 10 30.0000000  0 14R24G17G15G06R14G13R13R17G28R23G01G30
                                G24G19
 102994394.39840  80106786.60240  19260465.44700  19260465.07640  19260471.48140
 105934784.81740  82546598.80540  20158718.44300  20158718.50240  20158722.24140
 122556179.15440  95498332.66040  23321666.97300  23321666.39840  23321670.52440
 117779543.88540  91776291.42140  22412699.67300  22412700.21040  22412707.71240
 108985038.38440  84766162.36740  20445306.50700  20445306.61140  20445318.00440
 118794974.78440  92567523.07940  22605936.91400  22605935.82640  22605940.68240
 105868302.04140  82342029.39040  19825730.47300  19825729.55440  19825737.70840
 118496672.86540  92164114.46640  22143933.36400  22143935.04340  22143943.61940
 114248030.88140  89024445.58340  21740677.20500  21740676.30940  21740680.82240
 109971062.08840  85533074.02140  20557923.06300  20557922.63140  20557933.17640
 129736095.91240 101093056.18240  24687953.81900  24687953.07640  24687964.01740
         0.00040         0.00040  23131370.19600         0.00040         0.00040
 123681934.42140  96375540.22240  23535884.70400  23535885.05640  23535892.01740
 108576921.12940  84605430.35740  20661498.44100  20661497.33940  20661499.93940
 17  1 13  0 11  0.0000000  0 14R24G17G15G06R14G13R13R17G28R23G01G30
                                G24G19
 102972870.45440  80090045.76740  19256441.14100  19256440.18340  19256446.49140
 105965896.77440  82570841.88740  20164638.86700  20164638.79140  20164642.68840
 122582863.15140  95519125.36440  23326743.69400  23326742.99940  23326748.35340
 117686348.95640  91703672.03340  22394966.24300  22394966.33340  22394973.68240
 108906777.41240  84705292.73840  20430625.19900  20430624.92840  20430636.36840
 118864595.47940  92621772.94340  22619185.68400  22619185.18140  22619190.01540
 105893176.37340  82361376.07740  19830388.64500  19830387.69240  19830396.25940
 118379442.84840  92072935.62940  22122027.21500  22122028.19340  22122037.11140
 114310862.37340  89073405.16740  21752634.35600  21752633.16840  21752637.36440
 110060017.54040  85602261.58240  20574553.16300  20574552.18440  20574562.73740
         0.00040         0.00040  24701639.32400         0.00040         0.00040
         0.00040         0.00040  23149515.97700         0.00040         0.00040
 123584566.40340  96299669.06540  23517356.37100  23517356.32040  23517363.09540
 108572377.26540  84601889.69940  20660633.84200  20660632.60640  20660635.29840
 17  1 13  0 11 30.0000000  0 14R24G17G15G06R14G13R13R17G28R23G01G30
                                G24G19
 102952095.75640  80073887.68040  19252555.61700  19252555.17440  19252561.51240
 105997472.68840  82595446.49540  20170647.12300  20170647.18840  20170651.40540
 122609991.39640  95540264.23640  23331904.23000  23331905.63140  23331910.14440
 117593398.08940  91631242.82840  22377277.60900  22377278.03140  22377285.98940
 108828759.14940  84644611.87740  20415989.35000  20415988.58440  20415999.93040
 118934535.69440  92676271.77940  22632494.20200  22632493.37940  22632498.89840
 105918577.93840  82381132.82840  19835145.06600  19835144.53440  19835153.26840
 118262552.21540  91982020.76440  22100184.44100  22100184.30040  22100193.55340
 114373857.18440  89122492.00840  21764620.68100  21764619.73940  21764623.97740
 110149438.02640  85671810.83040  20591269.04300  20591268.83040  20591278.67140
         0.00040         0.00040  24715397.24600         0.00040         0.00040
         0.00040         0.00040  23167705.99000         0.00040         0.00040
 123487373.82340  96223934.62840  23498862.73700  23498861.75440  23498869.48640
 108568257.67540  84598679.63540  20659849.58600  20659848.71240  20659851.41840
 17  1 13  0 12  0.0000000  0 14R24G17G15G06R14G13R13R17G28R23G01G30
                                G24G19
 102932069.65840  80058311.83440  19248810.02600  19248809.94540  19248816.27240
 106029510.35940  82620410.90540  20176744.03100  20176744.16540  20176747.97240
 122637561.87240  95561747.70540  23337152.82000  23337152.08440  23337157.48040
 117500694.06040  91559005.94240  22359636.19500  22359636.63740  22359644.26940
 108750985.78640  84584121.49440  20401399.80800  20401399.19740  20401409.78240
 119004791.87940  92731016.81340  22645863.16700  22645864.06040  22645867.64040
 105944507.21540  82401300.02340  19840001.45800  19840000.61840  19840008.96540
 118146003.58240  91891371.86140  22078405.35700  22078405.16640  22078414.03740
 114437014.63340  89171705.58840  21776639.26400  21776638.83740  21776643.67440
 110239319.30540  85741718.48740  20608069.93000  20608070.07140  20608080.77940
         0.00040         0.00040  24729221.23500         0.00040         0.00040
         0.00040         0.00040  23185937.32600         0.00040         0.00040
 123390359.60340  96148339.12140  23480401.27100  23480401.21940  23480406.63640
 108564561.30540  84595799.36440  20659146.50600  20659145.43740  20659147.79940
 17  1 13  0 12 30.0000000  0 14R24G17G15G06R14G13R13R17G28R23G01G30
                                G24G19
 102912792.30440  80043318.34640  19245205.44000  19245204.93140  19245211.71440
 106062007.86240  82645733.63340  20182927.98800  20182928.03440  20182931.87640
 122665572.72340  95583574.31640  23342483.80300  23342483.59340  23342486.58740
 117408239.90140  91486963.79540  22342043.44700  22342043.29540  22342050.61140
 108673461.22940  84523824.62440  20386856.20500  20386855.93240  20386866.32440
 119075361.52540  92786006.10340  22659293.16000  22659292.07640  22659296.74040
 105970965.19240  82421878.43540  19844955.64700  19844954.95040  19844963.85140
 118029800.00440  91800991.34940  22056688.09310  22056688.39840  22056697.14840
 114500335.10740  89221046.19240  21788689.04300  21788688.69640  21788692.99740
 110329657.28540  85811981.33140  20624958.82000  20624958.38640  20624968.08240
         0.00040         0.00040  24743121.85000         0.00040         0.00040
         0.00040         0.00040  23204216.58900         0.00040         0.00040
 123293526.17440  96072884.53040  23461974.15200  23461973.74940  23461981.81040
 108561287.22040  84593248.13840  20658522.76600  20658522.18140  20658524.90540
 17  1 13  0 13  0.0000000  0 14R24G17G15G06R14G13R13R17G28R23G01G30
                                G24G19
 102894263.44840  80028907.02840  19241740.39500  19241740.15640  19241746.73540
 106094963.19740  82671413.11440  20189199.13100  20189199.16640  20189203.14540
 122694022.25440  95605742.77040  23347894.67700  23347896.14940  23347900.95440
 117316038.73840  91415118.74640  22324497.72700  22324497.79540  22324505.95740
 108596187.90140  84463723.15440  20372359.32900  20372359.52740  20372370.55940
 119146241.61440  92841237.31840  22672781.25600  22672780.34940  22672784.77140
 105997952.67440  82442868.67540  19850009.34100  19850008.92340  19850017.48340
 117913944.80640  91710881.81240  22035037.99200  22035039.04240  22035046.71140
 114563817.69640  89270513.12740  21800768.91800  21800768.52340  21800773.36540
 110420448.00840  85882596.32540  20641931.14500  20641930.47440  20641940.89740
         0.00040         0.00040  24757088.70200         0.00040         0.00040
         0.00040         0.00040  23222536.72800         0.00040         0.00040
 123196876.03940  95997572.76340  23443580.89000  23443581.14840  23443588.23740
 108558434.38040  84591025.15740  20657980.31700  20657979.29540  20657982.06440
 17  1 13  0 13 30.0000000  0 14R24G17G15G06R14G13R13R17G28R23G01G30
                                G24G19
 102876482.64240  80015077.52640  19238414.62000  19238414.86340  19238421.56940
 106128374.58640  82697447.96040  20195557.27000  20195557.18540  20195561.05940
 122722908.27040  95628251.31040  23353393.89500  23353392.84540  23353398.20940
 117224093.83740  91343473.39840  22307001.49800  22307001.68640  22307008.66440
 108519169.30340  84403819.81240  20357910.82600  20357910.90740  20357921.54540
 119217429.25940  92896708.21540  22686325.81300  22686326.55840  22686331.45140
 106025471.26140  82464272.00240  19855163.51300  19855162.45140  19855170.81640
 117798440.63740  91621045.29840  22013452.91800  22013453.33640  22013461.27140
 114627462.54640  89320106.48540  21812880.65900  21812880.03240  21812884.01840
 110511687.54840  85953560.40140  20658987.11500  20658987.09840  20658997.10240
         0.00040         0.00040  24771127.44400         0.00040         0.00040
         0.00040         0.00040  23240901.61400         0.00040         0.00040
 123100411.52740  95922405.64740  23425224.15000  23425225.20140  23425231.84240
 108556001.78840  84589129.63940  20657517.14200  20657516.51940  20657519.16740
 17  1 13  0 14  0.0000000  0 14R24G17G15G06R14G13R13R17G28R23G01G30
                                G24G19
 102859449.48640  80001829.51840  19235229.97900  19235229.87640  19235236.04740
 106162240.00940  82723836.60040  20202001.90500  20202001.97640  20202005.54640
 122752228.73540  95651098.44540  23358973.27600  23358972.71640  23358978.67340
 117132408.08640  91272029.98040  22289553.11100  22289554.15640  22289562.08640
 108442408.39640  84344116.90440  20343511.65400  20343510.63640  20343521.71940
 119288921.32540  92952416.26140  22699930.97100  22699931.03840  22699935.98740
 106053521.27440  82486088.66840  19860416.14800  19860415.45240  19860423.99940
 117683290.80040  91531484.39240  21991935.02100  21991934.99340  21991944.05240
 114691269.66240  89369826.32440  21825021.93600  21825022.18940  21825025.92940
 110603371.72740  86024870.31040  20676126.50500  20676126.23740  20676136.57240
         0.00040         0.00040  24785233.23700         0.00040         0.00040
         0.00040         0.00040  23259309.89000         0.00040         0.00040
 123004135.38740  95847385.28740  23406905.05200  23406903.91840  23406911.28040
 108553988.43640  84587560.80140  20657134.39000  20657133.37340  20657135.88140
 17  1 13  0 14 30.0000000  0 14R24G17G15G06R14G13R13R17G28R23G01G30
                                G24G19
 102843163.24540  79989162.46340  19232184.09700  19232184.19940  19232190.47640
 106196557.22840  82750577.28740  20208532.35600  20208531.99740  20208535.99540
 122781981.50740  95674282.40640  23364633.48000  23364634.03740  23364639.53040
 117040984.21040  91200790.62240  22272156.72500  22272157.48040  22272163.97540
 108365908.04440  84284616.65240  20329159.60700  20329159.61740  20329170.27240
 119360714.70340  93008359.11240  22713593.41700  22713592.71740  22713597.76840
 106082103.56440  82508319.33340  19865768.74200  19865767.91740  19865776.50140
 117568497.74640  91442200.97040  21970481.49500  21970481.96240  21970489.96140
 114755238.12340  89419671.86640  21837195.32000  21837194.36740  21837199.25440
 110695496.30340  86096522.73940  20693347.58700  20693347.76940  20693358.07440
         0.00040         0.00040  24799408.68600         0.00040         0.00040
         0.00040         0.00040  23277756.65300         0.00040         0.00040
 122908049.58140  95772513.27240  23388618.95600  23388619.27840  23388626.97340
 108552393.17840  84586317.75240  20656830.90400  20656829.81340  20656832.47640
 17  1 13  0 15  0.0000000  0 14R24G17G15G06R14G13R13R17G28R23G01G30
                                G24G19
 102827624.08740  79977076.46240  19229277.84000  19229278.09040  19229284.42340
 106231324.41340  82777668.59640  20215148.19800  20215148.25040  20215151.81340
 122812165.10840  95697802.07240  23370379.80400  23370378.66240  23370384.17740
 116949825.91440  91129758.19040  22254810.36800  22254810.05240  22254817.63640
 108289671.91040  84225321.89740  20314857.34600  20314857.55340  20314868.24940
 119432807.05740  93064534.96540  22727312.14800  22727312.54840  22727315.67140
 106111219.54440  82530965.09740  19871220.66600  19871220.20640  19871228.76040
 117454065.26040  91353197.91240  21949099.59600  21949099.76140  21949106.79040
 114819368.64640  89469643.68440  21849398.56900  21849398.85940  21849403.03140
 110788057.73940  86168514.94040  20710652.65600  20710651.67140  20710661.48040
         0.00040         0.00040  24813655.09400         0.00040         0.00040
         0.00040         0.00040  23296249.68200         0.00040         0.00040
 122812157.78840  95697792.40540  23370370.83800  23370372.25140  23370379.55540
 108551215.39340  84585400.00340  20656606.25800  20656605.46940  20656608.13540
 17  1 13  0 15 30.0000000  0 14R24G17G15G06R14G13R13R17G28R23G01G30
                                G24G19
 102812830.95940  79965570.70440  19226512.23000  19226512.07340  19226518.28240
 106266539.30940  82805108.76540  20221849.02000  20221849.14740  20221853.02440
 122842776.96840  95721655.44540  23376202.00000  23376203.63640  23376208.78740
 116858935.57940  91058934.57340  22237513.92300  22237514.05140  22237521.68240
 108213703.00640  84166234.98140  20300605.32500  20300606.02440  20300617.43140
 119505194.66140  93120940.87640  22741087.43000  22741086.62940  22741092.15640
 106140869.44640  82554026.12340  19876773.48000  19876772.31840  19876781.57740
 117339995.39440  91264476.98340  21927782.15900  21927781.47540  21927790.47440
 114883660.39740  89519741.14840  21861633.20300  21861632.36640  21861637.24540
 110881051.34940  86240843.29240  20728036.16300  20728035.87840  20728045.89640
         0.00040         0.00040  24827961.65900         0.00040         0.00040
         0.00040         0.00040  23314779.31100         0.00040         0.00040
 122716461.54340  95623223.95440  23352161.22400  23352161.99140  23352169.70940
 108550453.49940  84584806.32440  20656461.45400  20656460.53140  20656463.33340
 17  1 13  0 16  0.0000000  0 15R24G17G15G06R14G13R13R17G28G02R23G01
                                G30G24G19
 102798783.53440  79954644.94540  19223884.69800  19223884.87940  19223891.02240
 106302200.35540  82832896.58840  20228635.09600  20228635.32940  20228639.09240
 122873815.60840  95745841.36040  23382110.50300  23382109.44840  23382115.37640
 116768316.79840  90988322.54740  22220270.30500  22220270.06140  22220276.79240
 108138004.67740  84107358.51640  20286405.77200  20286405.18140  20286416.23540
 119577875.12240  93177574.94040  22754918.74800  22754918.24640  22754922.61440
 106171054.71540  82577503.54640  19882425.91600  19882425.43040  19882434.36340
 117226291.84640  91176040.93240  21906535.07600  21906533.78240  21906542.95840
 114948113.64740  89569964.43240  21873898.49900  21873897.66040  21873902.52140
         0.00040         0.00040  24752370.04410         0.00040         0.00040
 110974473.60640  86313505.03640  20745500.27100  20745500.15040  20745510.41940
         0.00040         0.00040  24842345.77900         0.00040         0.00040
         0.00040         0.00040  23333357.15300         0.00040         0.00040
 122620963.87540  95548810.22240  23333990.41400  23333989.51240  23333996.14540
 108550106.70040  84584536.09640  20656395.16100  20656394.57440  20656397.04940
 17  1 13  0 16 30.0000000  0 16R24G17G12G15G06R14G13R13R17G28G02R23
                                G01G30G24G19
 102785481.13040  79944298.64540  19221396.56900  19221396.91640  19221403.59040
 106338305.28440  82861030.29940  20235505.64100  20235505.76740  20235509.67040
         0.00040         0.00040  25290309.73600         0.00040         0.00040
 122905278.62040  95770357.96640  23388098.14900  23388097.42740  23388100.78540
 116677972.34540  90917924.29940  22203077.80900  22203078.11640  22203085.81840
 108062579.89840  84048694.80840  20272256.20000  20272256.08140  20272267.23140
 119650845.11640  93234434.66940  22768803.07100  22768803.50640  22768808.05440
 106201775.48640  82601397.47940  19888178.97200  19888178.21840  19888187.58640
 117112957.20740  91087891.78640  21885355.43100  21885354.65740  21885362.50440
 115012727.95340  89620313.22540  21886194.18600  21886193.18340  21886197.73740
         0.00040         0.00040  24729949.08400         0.00040         0.00040
 111068320.06240  86386496.69440  20763043.51200  20763043.80340  20763053.66240
         0.00040         0.00040  24856792.12600         0.00040         0.00040
 122715421.39340  95622428.89540  23351969.77100  23351971.97040  23351982.44740
 122525667.25140  95474553.15940  23315853.21000  23315853.76040  23315861.81940
 108550173.96440  84584588.51340  20656408.65400  20656407.50440  20656409.98640
 17  1 13  0 17  0.0000000  0 16R24G17G12G15G06R14G13R13R17G28G02R23
                                G01G30G24G19
 102772923.20840  79934531.38340  19219048.34800  19219048.59740  19219055.14040
 106374851.70840  82889508.01640  20242459.98900  20242460.19840  20242464.16340
         0.00040         0.00040  25276587.69110         0.00040         0.00040
 122937163.89240  95795203.58440  23394166.04900  23394164.91340  23394170.21940
 116587905.10440  90847742.04840  22185938.87000  22185939.06340  22185946.50540
 107987431.57740  83990246.14040  20258158.43100  20258157.73540  20258169.28940
 119724101.51740  93291517.50340  22782743.35100  22782742.67240  22782748.78940
 106233032.61040  82625708.57040  19894033.24200  19894032.18240  19894040.09440
 116999994.28240  91000031.73840  21864246.12500  21864244.76540  21864253.40540
 115077503.16940  89670787.41140  21898520.27400  21898519.98740  21898524.28740
         0.00040         0.00040  24707515.49500         0.00040         0.00040
 111162586.98840  86459815.40140  20780666.37600  20780665.86840  20780676.75540
         0.00040         0.00040  24871301.50600         0.00040         0.00040
 122813458.89440  95698821.66040  23370626.76100  23370624.96240  23370634.92740
 122430574.08240  95400454.61440  23297757.79600  23297758.96640  23297766.38140
 108550653.92040  84584962.50640  20656499.62800  20656498.69140  20656501.71040
 17  1 13  0 17 30.0000000  0 16R24G17G12G15G06R14G13R13R17G28G02R23
                                G01G30G24G19
 102761108.79240  79925342.40340  19216839.53300  19216839.09240  19216845.76240
 106411837.95840  82918328.46240  20249498.33400  20249498.40640  20249502.71440
         0.00040         0.00040  25262863.64410         0.00040         0.00040
 122969469.44140  95820376.69240  23400311.92000  23400312.43440  23400318.61540
 116498118.18640  90777778.23240  22168852.50900  22168852.75640  22168860.73240
 107912562.98640  83932015.02240  20244113.07900  20244112.95240  20244123.86640
 119797641.49840  93348821.38240  22796739.13900  22796737.44940  22796742.31140
 106264827.04240  82650437.56740  19899987.35400  19899985.65540  19899994.54840
 116887406.05240  90912463.16440  21843207.13600  21843205.34340  21843211.96040
 115142438.95940  89721386.71640  21910877.78000  21910876.49440  21910881.11440
         0.00040         0.00040  24685069.15810         0.00040         0.00040
 111257270.09140  86533457.77840  20798366.58800  20798366.28140  20798375.96140
         0.00040         0.00040  24885882.15910         0.00040         0.00040
 122911708.49640  95775379.68340  23389322.61900  23389321.39440  23389328.61240
 122335686.85640  95326516.56840  23279702.48700  23279703.48240  23279709.88440
 108551545.59040  84585657.31540  20656669.37500  20656668.47440  20656671.08440
 17  1 13  0 18  0.0000000  0 16R24G17G12G15G06R14G13R13R17G28G02R23
                                G01G30G24G19
 102750037.67040  79916731.53640  19214769.94900  19214769.18540  19214775.23940
 106449262.07140  82947490.10440  20256620.17300  20256620.08140  20256623.83640
         0.00040         0.00040  25249133.09800         0.00040         0.00040
 123002193.28640  95845875.76840  23406540.21900  23406540.07440  23406543.77940
 116408614.77340  90708035.33440  22151820.71400  22151821.53440  22151828.50740
 107837977.07240  83874003.78040  20230121.28800  20230121.01440  20230131.75740
 119871462.42840  93406344.15240  22810785.38000  22810785.94240  22810789.95040
 106297159.94940  82675585.38040  19906042.06900  19906040.98540  19906049.34940
 116775195.75040  90825188.53540  21822234.52300  21822235.41140  21822244.41840
 115207535.37640  89772111.17840  21923265.47000  21923264.49140  21923268.23740
         0.00040         0.00040  24662611.02100         0.00040         0.00040
 111352365.56640  86607420.90840  20816143.27200  20816143.20640  20816153.12240
         0.00040         0.00040  24900529.27610         0.00040         0.00040
 123010168.69140  95852101.83340  23408058.11900  23408060.36240  23408071.99440
 122241008.58740  95252741.32540  23261683.76200  23261685.85540  23261692.67940
 108552848.05540  84586672.22240  20656916.97300  20656916.10440  20656918.79740
 17  1 13  0 18 30.0000000  0 16R24G17G12G15G06R15R14G13R13R17G28G02
                                R23G30G24G19
 102739708.81840  79908697.99940  19212836.99500  19212837.05740  19212843.78240
 106487121.98740  82976991.32740  20263824.63900  20263824.69840  20263828.82340
         0.00040         0.00040  25235390.79300         0.00040         0.00040
 123035333.28040  95871699.10240  23412845.92100  23412846.61340  23412849.21040
 116319397.85240  90638515.68940  22134842.97700  22134843.52840  22134851.27540
 125103829.57540  97303010.11740  23411478.29600  23411477.31340  23411488.84840
 107763677.58740  83816215.30940  20216182.23700  20216182.35540  20216193.57940
 119945560.87740  93464083.18040  22824885.49900  22824885.10540  22824890.43340
 106330031.69540  82701152.29140  19912198.00500  19912196.80440  19912205.36340
 116663365.90340  90738209.78540  21801338.10000  21801337.73840  21801345.98640
 115272792.15940  89822960.60640  21935682.71900  21935682.48540  21935686.77040
         0.00040         0.00040  24640137.41500         0.00040         0.00040
 111447869.29740  86681701.56340  20833996.71600  20833996.20540  20834006.80040
 123108837.45640  95928986.51640  23426834.10000  23426835.27540  23426844.81540
 122146541.69040  95179130.77840  23243711.13100  23243709.93140  23243716.49240
 108554560.13640  84588006.31240  20657243.12300  20657242.06740  20657244.72940
 17  1 13  0 19  0.0000000  0 15R24G17G15G06R15R14G13R13R17G28G02R23
                                G30G24G19
 102730121.47940  79901241.18440  19211045.08500  19211044.78740  19211051.01640
 106525415.02940  83006830.05340  20271111.96000  20271111.73540  20271115.45240
 123068887.14640  95897844.97540  23419230.61300  23419231.09440  23419236.68440
 116230470.24040  90569221.49240  22117920.52300  22117920.91240  22117928.38840
 124991700.80740  97215798.90740  23390493.17810  23390492.91540  23390503.43040
 107689667.34140  83758651.80040  20202298.12300  20202298.03940  20202309.10140
 120019933.77540  93522036.05340  22839038.31400  22839038.28540  22839043.98540
 106363442.76440  82727138.67440  19918454.75900  19918453.72140  19918462.69240
 116551919.48440  90651529.25640  21780512.53000  21780510.38640  21780519.81340
 115338209.05440  89873934.79940  21948131.79300  21948130.67840  21948135.58740
         0.00040         0.00040  24617649.04800         0.00040         0.00040
 111543776.90940  86756296.35340  20851925.59400  20851925.05540  20851935.48240
 123207713.11840  96006032.45440  23445650.49800  23445647.19040  23445657.64140
 122052288.25640  95105686.59740  23225773.41500  23225773.55240  23225780.12240
 108556680.55040  84589658.58540  20657646.37000  20657645.63040  20657648.17340
 17  1 13  0 19 30.0000000  0 15R24G17G15G06R15R14G13R13R17G28G02R23
                                G30G24G19
 102721274.95940  79894360.56740  19209390.47600  19209390.00840  19209396.45740
 106564139.44340  83037004.91740  20278480.61100  20278480.73140  20278484.66940
 123102852.90940  95924311.74840  23425695.40700  23425694.69940  23425700.41940
 116141834.94940  90500155.05740  22101053.90600  22101054.23940  22101061.96040
 124879508.42740  97128538.20740  23369498.55600  23369498.62040  23369508.58940
 107615949.86940  83701316.00340  20188470.20700  20188469.38840  20188480.05140
 120094578.38040  93580200.67740  22853244.09500  22853244.30440  22853246.87240
 106397394.18940  82753545.31940  19924812.77800  19924811.97040  19924820.45240
 116440859.20640  90565149.09440  21759757.02000  21759755.94540  21759765.39940
 115403785.95040  89925033.66040  21960609.73300  21960609.37340  21960614.01540
         0.00040         0.00040  24595147.61900         0.00040         0.00040
 111640084.53140  86831202.24340  20869928.31900  20869928.39240  20869938.41340
 123306793.76240  96083238.19640  23464503.12300  23464503.07540  23464510.29540
 121958251.19840  95032410.99640  23207879.60100  23207878.72040  23207886.03340
 108559208.09640  84591628.09940  20658127.36100  20658126.50140  20658129.32140
 17  1 13  0 20  0.0000000  0 16R24G17G12G15G06R15R14G13R13R17G28G02
                                R23G30G24G19
 102713168.22640  79888055.33740  19207874.65300  19207874.17740  19207880.46740
 106603293.67140  83067514.68940  20285931.09900  20285931.23440  20285935.34540
         0.00040         0.00040  25194115.72210         0.00040         0.00040
 123137228.54440  95951097.92940  23432236.51200  23432235.06740  23432240.60440
 116053495.30740  90431318.98540  22084243.88300  22084244.04940  22084251.61040
 124767254.72140  97041229.83540  23348494.12200  23348492.01940  23348501.71640
 107542527.84740  83644210.00440  20174695.49800  20174695.48340  20174706.31340
 120169491.33140  93638574.36440  22867498.84500  22867498.36840  22867503.17240
 106431886.60440  82780372.74140  19931272.31200  19931271.28640  19931279.92840
 116330188.21940  90479071.68840  21739073.85400  21739074.96240  21739083.61440
 115469522.76240  89976257.12740  21973119.45700  21973118.67440  21973123.56640
 129130094.89540 100620842.24740  24572634.50900  24572635.12440  24572636.95040
 111736788.34040  86906416.31040  20888007.17200  20888006.63640  20888016.57240
 123406077.92540  96160602.36140  23483399.88500  23483397.43340  23483406.70940
 121864433.37040  94959306.22740  23190025.72500  23190026.20140  23190032.52740
 108562141.66140  84593913.99440  20658685.79900  20658684.88340  20658687.53940
 17  1 13  0 20 30.0000000  0 15R24G17G15G06R15R14G13R13R17G28G02R23
                                G30G24G19
 102705800.61840  79882324.98640  19206497.45100  19206496.19140  19206502.82740
 106642874.95040  83098357.24540  20293463.85100  20293463.60640  20293467.39140
 123172011.37640  95978201.39440  23438854.82700  23438855.38340  23438860.06740
 115965453.99240  90362715.41740  22067489.55800  22067490.47440  22067497.64340
 124654941.66540  96953875.30940  23327473.66000  23327473.63240  23327484.16340
 107469404.91340  83587336.61740  20160977.59100  20160977.67840  20160988.27940
 120244669.88940  93697155.03340  22881805.41800  22881805.08540  22881808.99440
 106466920.34240  82807621.18940  19937833.00500  19937831.67640  19937840.30940
 116219909.22140  90393299.11740  21718467.47500  21718466.39340  21718474.89940
 115535419.35040  90027605.10040  21985660.09100  21985659.00640  21985663.31140
 129011730.16240 100528610.05640  24550107.74500  24550106.93640  24550113.67940
 111833884.10040  86981935.20840  20906159.18700  20906157.82140  20906168.24140
 123505563.56940  96238123.58540  23502329.71100  23502329.16040  23502332.81140
 121770837.07540  94886374.08440  23172215.40400  23172215.12340  23172221.96040
 108565480.05840  84596515.35040  20659321.40800  20659320.34740  20659322.56540
 17  1 13  0 21  0.0000000  0 15R24G17G15G06R15R14G13R13R17G28G02R23
                                G30G24G19
 102699171.35840  79877168.90040  19205256.94300  19205256.82540  19205263.03040
 106682881.60940  83129531.26340  20301076.45700  20301076.32940  20301080.55840
 123207199.68840  96005620.80640  23445550.94700  23445550.69340  23445555.71140
 115877714.25040  90294346.82840  22050794.16500  22050794.13540  22050801.39740
 124542571.67140  96866476.43840  23306445.55500  23306444.93640  23306454.77840
 107396584.02940  83530698.16540  20147316.47100  20147316.37640  20147327.22240
 120320111.17440  93755940.39640  22896160.83800  22896160.78540  22896165.25140
 106502496.28940  82835291.35440  19944495.57900  19944494.00340  19944502.76640
 116110025.05640  90307833.70540  21697930.38100  21697931.99940  21697941.79140
 115601475.53540  90079077.43140  21998230.00300  21998229.00940  21998232.99340
 128893306.84040 100436332.17140  24527575.88500  24527574.11340  24527579.67240
 111931367.76140  87057755.82640  20924381.50700  20924381.45240  20924391.72440
 123605248.95740  96315800.59840  23521299.57000  23521296.06040  23521306.06040
 121677465.05740  94813616.69440  23154447.76800  23154446.91040  23154454.12040
 108569222.38540  84599431.45040  20660032.88200  20660032.12940  20660034.93040
 17  1 13  0 21 30.0000000  0 15R24G17G15G06R15R14G13R13R17G28G02R23
                                G30G24G19
 102693279.13040  79872586.06040  19204155.24400  19204154.82340  19204161.40440
 106723311.30240  83161034.91940  20308770.36000  20308770.19740  20308774.40740
 123242790.93440  96033354.21140  23452322.64900  23452323.09340  23452329.33340
 115790278.81440  90226215.34340  22034155.27900  22034155.29040  22034163.34840
 124430147.04340  96779035.12040  23285406.66600  23285406.45140  23285415.38440
 107324068.17740  83474296.97040  20133712.44800  20133712.37540  20133723.87240
 120395811.48640  93814927.68640  22910566.69400  22910566.58040  22910571.10240
 106538614.84940  82863383.56140  19951258.64700  19951257.48540  19951266.45940
 116000538.45740  90222677.56840  21677472.25700  21677472.19240  21677480.30940
 115667691.02740  90130673.90140  22010829.90300  22010829.40240  22010833.71240
 128774827.19240 100344010.44540  24505027.59100  24505027.38740  24505033.54240
 112029235.24440  87133874.95040  20942677.23800  20942676.67340  20942687.36540
 123705132.22440  96393631.51940  23540304.35200  23540307.96740  23540312.67940
 121584319.38840  94741035.68640  23136722.10100  23136721.92840  23136729.11940
 108573367.15940  84602661.14340  20660821.89300  20660820.88640  20660823.58940
 17  1 13  0 22  0.0000000  0 15R24G17G15G06R15R14G13R13R17G28G02R23
                                G30G24G19
 102688122.72740  79868575.53140  19203190.31500  19203190.21540  19203197.07540
 106764161.74740  83192866.43940  20316543.48700  20316543.50040  20316547.50440
 123278783.15840  96061400.03040  23459172.70600  23459173.68940  23459178.89240
 115703150.79540  90158323.40340  22017574.86900  22017575.62240  22017582.92540
 124317669.64640  96691552.78640  23264359.11000  23264357.72740  23264368.25340
 107251861.41340  83418136.16440  20120166.61500  20120166.95140  20120177.98940
 120471768.46540  93874114.90640  22925019.46200  22925019.63140  22925025.56140
 106575276.52940  82891898.18140  19958124.74800  19958123.37840  19958132.13640
 115891452.34140  90137832.79440  21657085.81200  21657087.17840  21657093.98740
 115734065.62340  90182394.32740  22023459.06700  22023459.58640  22023464.28040
 128656294.43740 100251647.27740  24482473.17700  24482472.64140  24482479.91540
 112127482.71740  87210289.62540  20961043.65500  20961043.25540  20961053.52440
 123805211.50240  96471615.25140  23559350.43400  23559350.90040  23559356.54340
 121491403.07040  94668633.38540  23119039.90800  23119039.13740  23119048.05640
 108577913.26140  84606203.56340  20661687.49800  20661686.08240  20661688.59940
 17  1 13  0 22 30.0000000  0 15R24G17G15G06R15R14G13R13R17G28G02R23
                                G30G24G19
 102683701.71940  79865136.97640  19202363.97400  19202364.16240  19202369.95640
 106805431.18540  83225024.44540  20324396.63700  20324396.90840  20324400.94240
 123315174.14540  96089756.63240  23466099.00100  23466098.18740  23466102.15840
 115616333.26540  90090673.41840  22001053.54000  22001054.17540  22001062.16240
 124205142.01640  96604031.38040  23243298.74100  23243299.48940  23243309.84240
 107179966.36940  83362217.81440  20106680.14700  20106679.11340  20106690.12840
 120547978.97340  93933499.67940  22939522.20600  22939522.24340  22939526.37940
 106612481.81940  82920835.60940  19965091.63700  19965090.76640  19965099.23440
 115782769.48440  90053301.73640  21636775.85900  21636776.78740  21636784.65340
 115800599.33540  90234238.75340  22036122.20400  22036121.01240  22036125.26940
 128537711.20340 100159244.94440  24459908.56900  24459909.49040  24459910.51640
 112226106.10140  87286996.67440  20979479.66200  20979479.64440  20979489.96040
 123905485.08840  96549750.47640  23578435.52500  23578432.17440  23578437.51840
 121398719.01940  94596412.08640  23101402.85500  23101403.06140  23101410.52040
 108582859.90140  84610058.08740  20662628.62400  20662627.45040  20662630.11240
 17  1 13  0 23  0.0000000  0 14R24G17G15G06R15R14G13R13R17G28G02R23
                                G24G19
 102680014.24440  79862268.94840  19201674.10300  19201674.06340  19201680.46940
 106847117.30540  83257507.13140  20332329.31900  20332329.47640  20332333.56640
 123351961.27540  96118421.90340  23473098.48700  23473098.63240  23473103.63740
 115529828.94540  90023267.46340  21984592.83400  21984593.13840  21984600.58140
 124092566.14140  96516472.44940  23222232.48800  23222232.51940  23222243.02540
 107108386.65440  83306544.72840  20093252.91900  20093252.24340  20093262.42040
 120624439.41540  93993079.21640  22954072.27100  22954071.21840  22954076.87240
 106650231.54740  82950196.48840  19972161.15700  19972159.92040  19972168.68240
 115674492.25040  89969086.19340  21616542.53000  21616542.64640  21616550.61640
 115867291.86940  90286206.95140  22048811.65200  22048811.86640  22048816.03040
 128419079.72740 100066804.87340  24437331.90800  24437331.60640  24437336.72740
 112325101.18740  87363992.83840  20997985.89900  20997985.89640  20997995.33540
 121306269.29440  94524373.34240  23083810.82400  23083810.97340  23083817.43540
 108588205.05640  84614223.14740  20663645.68900  20663644.59940  20663647.29340
 17  1 13  0 23 30.0000000  0 14R24G17G15G06R15R14G13R13R17G28G02R23
                                G24G19
 102677060.06540  79859971.26240  19201122.77700  19201121.85640  19201128.19340
 106889218.31940  83290313.10940  20340340.93600  20340341.10440  20340345.06340
 123389143.04040  96147394.66440  23480174.48100  23480174.58540  23480179.07740
 115443641.31740  89956108.29340  21968192.03400  21968192.17140  21968199.60040
 123979944.89240  96428878.18040  23201157.18900  23201155.53540  23201166.96840
 107037125.64740  83251119.50940  20079882.77900  20079882.93040  20079894.22740
 120701147.57840  94052851.76740  22968669.80300  22968669.50840  22968674.39240
 106688526.30040  82979981.26540  19979331.65300  19979331.47140  19979340.33340
 115566624.22940  89885188.84140  21596383.17200  21596384.37240  21596392.76940
 115934143.64940  90338299.21240  22061533.70900  22061533.55540  22061537.81340
 128300402.80940  99974329.38240  24414748.93300  24414747.77440  24414752.17840
 112424464.19540  87441275.15440  21016561.12700  21016560.96140  21016571.60340
 121214057.16840  94452519.77840  23066263.43200  23066263.38640  23066270.23840
 108593948.22340  84618698.34640  20664738.03100  20664737.25940  20664739.90240
 17  1 13  0 24  0.0000000  0 15R24G17G15G06R15R14G13R13R17G28G02R23
                                G30G24G19
 102674837.54140  79858242.63340  19200705.32600  19200705.88740  19200712.36340
 106931731.63740  83323440.37240  20348431.30200  20348431.23440  20348434.91040
 123426716.09140  96176672.34040  23487324.14200  23487323.78240  23487328.05140
 115357772.54540  89889197.59140  21951851.11800  21951852.05340  21951859.25140
 123867280.07540  96341249.95340  23180074.50710  23180072.68040  23180083.22640
 106966185.84440  83195944.12640  20066575.74100  20066575.29840  20066585.86540
 120778099.85840  94112814.52840  22983313.23000  22983313.32640  22983319.06540
 106727365.82240  83010189.76440  19986605.35100  19986604.28840  19986613.42140
 115459167.15640  89801611.16540  21576303.27000  21576303.97340  21576312.15740
 116001153.60340  90390514.74840  22074286.10400  22074285.45740  22074290.27140
 128181682.85040  99881820.35540  24392155.82600  24392155.38440  24392163.85440
 112524190.68640  87518840.17540  21035204.54000  21035203.47740  21035213.67740
         0.00040         0.00040  23635896.03300         0.00040         0.00040
 121122084.41140  94380852.74540  23048759.63000  23048760.80740  23048768.67240
 108600087.47240  84623482.18040  20665906.68300  20665905.75640  20665908.20140
 17  1 13  0 24 30.0000000  0 15R24G17G15G06R15R14G13R13R17G28G02R23
                                G30G24G19
 102673345.44340  79857082.12140  19200426.66600  19200426.95140  19200433.88640
 106974654.93840  83356887.09640  20356598.69800  20356599.00440  20356603.15940
 123464678.75840  96206253.62540  23494547.68000  23494546.87140  23494553.10840
 115272225.97640  89822537.94940  21935572.15400  21935572.76640  21935580.28640
 123754573.85640  96253589.65540  23158983.39210  23158981.55440  23158992.33540
 106895570.82740  83141021.36040  20053327.96800  20053327.76640  20053338.40140
 120855293.00740  94172964.96240  22998003.38300  22998001.34040  22998006.91140
 106766751.12140  83040822.76440  19993981.41000  19993980.40040  19993989.18340
 115352124.33740  89718355.68840  21556300.84800  21556300.83240  21556308.91540
 116068321.98940  90442853.72040  22087066.49700  22087066.62740  22087071.18440
 128062922.54840  99789279.98640  24369557.28800  24369556.70440  24369562.59140
 112624276.81540  87596684.91840  21053914.78500  21053913.88640  21053924.37040
         0.00040         0.00040  23655118.40810         0.00040         0.00040
 121030353.95940  94309374.50040  23031305.02500  23031305.81940  23031311.79440
 108606621.70040  84628573.79040  20667150.36300  20667149.16340  20667151.77140
 17  1 13  0 25  0.0000000  0 15R24G17G15G06R15R14G13R13R17G28G02R23
                                G30G24G19
 102672582.92140  79856489.05740  19200284.97600  19200284.55840  19200291.13040
 107017986.22940  83390651.73240  20364844.93100  20364844.77140  20364848.66540
 123503028.72840  96236136.69240  23501845.93900  23501845.41040  23501851.24540
 115187004.82140  89756131.86740  21919355.50800  21919356.02040  21919363.46640
 123641829.25840  96165899.47840  23137881.16810  23137881.68240  23137892.77540
 106825283.92240  83086353.79340  20040142.35300  20040142.33540  20040152.75340
 120932724.59640  94233301.26440  23012734.81200  23012736.35240  23012742.34440
 106806682.55340  83071880.52940  20001458.47500  20001458.43740  20001467.23640
 115245498.66640  89635424.66040  21536373.60500  21536374.65440  21536381.56440
 116135648.74340  90495316.11340  22099880.30700  22099878.78340  22099883.08440
 127944124.88340  99696710.45940  24346951.86400  24346951.27940  24346953.82640
 112724718.77540  87674806.42240  21072690.55300  21072690.40840  21072700.07840
         0.00040         0.00040  23674383.27700         0.00040         0.00040
 120938868.93540  94238087.48040  23013895.86000  23013896.07440  23013903.27340
 108613549.74940  84633972.27340  20668468.48500  20668467.47440  20668470.08940
 17  1 13  0 25 30.0000000  0 15R24G17G15G06R15R14G13R13R17G28G02R23
                                G30G24G19
 102672548.29140  79856462.13040  19200278.78400  19200278.07640  19200284.35940
 107061723.43340  83424732.66540  20373168.04200  20373168.00740  20373171.60540
 123541763.46340  96266319.55140  23509215.16900  23509215.82540  23509222.11440
 115102111.62240  89689981.34940  21903199.89500  21903200.54040  21903208.57840
 123529048.15240  96078180.90740  23116777.15500  23116777.26740  23116788.16340
 106755328.72040  83031944.19840  20027019.20200  20027018.55840  20027029.35840
 121010391.17040  94293820.64340  23027516.52400  23027517.19540  23027522.01240
 106847160.52240  83103363.37740  20009039.21500  20009038.26740  20009046.94540
 115139292.37940  89552819.77440  21516526.61200  21516527.84040  21516536.21640
 116203133.44940  90547901.57940  22112721.32200  22112721.00240  22112724.41540
 127825292.18740  99604113.63040  24324337.12900  24324336.08940  24324339.74640
 112825512.53840  87753201.54740  21091531.74200  21091532.33640  21091542.94740
         0.00040         0.00040  23693680.09700         0.00040         0.00040
 120847631.27840  94166993.26640  22996533.65200  22996534.25740  22996541.45540
 108620870.39940  84639676.68240  20669861.17000  20669860.36940  20669862.96740
 17  1 13  0 26  0.0000000  0 15R24G17G12G15G06R15R14G13R13R17G28G02
                                R23G24G19
 102673240.85040  79857000.79640  19200408.15300  19200407.57440  19200414.16540
 107105865.06940  83459128.73840  20381567.63600  20381567.45840  20381571.47540
         0.00040         0.00040  25028298.12000         0.00040         0.00040
 123580881.38540  96296801.00740  23516660.83500  23516660.66940  23516665.56640
 115017549.86140  89624089.10640  21887109.70900  21887109.67140  21887116.88440
 123416233.11540  95990435.90440  23095664.80300  23095664.78140  23095677.36940
 106685708.53940  82977795.18740  20013957.84900  20013957.84440  20013968.58840
 121088289.80940  94354520.84140  23042339.95600  23042341.03140  23042345.23140
 106888185.72140  83135271.85340  20016722.35800  20016721.12040  20016729.52040
 115033508.78940  89470543.69240  21496759.91900  21496759.20440  21496767.36340
 116270776.71640  90600610.59040  22125593.10800  22125592.57340  22125597.18840
 127706427.93640  99511492.21940  24301718.49700  24301719.66540  24301722.62140
 112926654.16640  87831867.23540  21110440.21700  21110440.07340  21110450.86940
 120756644.51140  94096094.50740  22979219.70100  22979220.03540  22979227.21140
 108628583.16740  84645686.63740  20671329.27100  20671328.13640  20671330.98140
 17  1 13  0 26 30.0000000  0 16R24G17G12G15G06R15R14G13R13R17G28G02
                                R23G30G24G19
 102674658.48240  79858103.41340  19200673.14300  19200672.70340  19200679.23240
 107150407.79440  83493837.34840  20390043.60000  20390043.74840  20390047.66740
         0.00040         0.00040  25014426.85500         0.00040         0.00040
 123620379.13240  96327578.45040  23524176.60700  23524177.25640  23524182.44240
 114933321.59140  89558456.70140  21871081.27800  21871081.72640  21871089.24140
 123303386.00040  95902665.89340  23074548.28810  23074546.95340  23074556.04840
 106616425.36540  82923908.28840  20000961.34500  20000960.87740  20000971.26440
 121166417.24340  94415399.27640  23057207.65000  23057207.25440  23057213.02040
 106929757.46740  83167605.42040  20024507.61400  20024506.33440  20024514.89140
 114928149.62940  89388597.76240  21477070.56400  21477070.25140  21477078.24840
 116338577.37440  90653442.25440  22138494.86900  22138494.37640  22138499.78840
 127587533.77240  99418847.44940  24279093.58700  24279092.42540  24279097.56140
 113028138.67240  87910799.58740  21129412.73200  21129411.85440  21129421.66640
         0.00040         0.00040  23732375.86700         0.00040         0.00040
 120665909.96840  94025392.30840  22961954.17500  22961954.11840  22961961.14640
 108636685.86940  84652000.43840  20672871.03900  20672870.11640  20672872.75940
 17  1 13  0 27  0.0000000  0 16R24G17G12G15G06R15R14G13R13R17G28G02
                                R23G30G24G19
 102676799.95340  79859769.01240  19201073.93800  19201072.83340  19201079.58540
 107195349.80540  83528857.08840  20398595.86600  20398595.98640  20398599.91440
         0.00040         0.00040  25000548.47800         0.00040         0.00040
 123660254.61940  96358650.28240  23531765.56500  23531765.40640  23531769.71840
 114849430.16140  89493086.78540  21855117.39000  21855117.39440  21855124.56840
 123190509.74440  95814873.27440  23053425.83400  23053424.88540  23053433.84840
 106547483.72640  82870287.03440  19988027.16500  19988026.90240  19988037.72740
 121244770.44940  94476453.73740  23072117.19400  23072116.25940  23072121.02140
 106971876.88740  83200364.95740  20032395.58500  20032394.05040  20032402.68540
 114823218.12240  89306984.29140  21457461.42100  21457461.65440  21457469.28340
 116406535.80540  90706396.83740  22151426.62500  22151426.49840  22151431.55440
 127468612.48440  99326181.62040  24256463.66400  24256463.45840  24256469.20940
 113129963.09240  87989996.34140  21148447.24400  21148446.40640  21148456.76640
         0.00040         0.00040  23751774.53810         0.00040         0.00040
 120575430.82040  93954889.10540  22944736.23000  22944735.97840  22944743.32040
 108645177.08540  84658616.97240  20674487.08600  20674485.94640  20674488.34740
 17  1 13  0 27 30.0000000  0 15R24G17G15G06R15R14G13R13R17G28G02R23
                                G30G24G19
 102679664.75240  79861997.19440  19201608.47100  19201608.83540  19201615.08040
 107240689.26440  83564186.53240  20407223.94900  20407223.77240  20407227.79740
 123700506.01340  96390015.00040  23539424.74100  23539424.32940  23539429.23840
 114765878.80040  89427981.83040  21839217.98900  21839218.32340  21839225.59840
 123077606.81340  95727059.95740  23032294.12700  23032296.05740  23032306.05240
 106478886.80240  82816933.87540  19975158.80800  19975159.03640  19975169.49040
 121323346.54940  94537681.81140  23087072.46400  23087071.09640  23087076.35840
 107014543.97040  83233550.45940  20040384.23900  20040383.80640  20040393.21740
 114718717.04540  89225705.77040  21437932.42000  21437932.74340  21437941.65840
 116474652.08140  90759474.44440  22164390.01900  22164388.45340  22164392.97440
 127349667.34440  99233497.18040  24233828.29400  24233829.00540  24233832.05540
 113232123.37940  88069454.31640  21167543.44300  21167543.49940  21167554.39040
         0.00040         0.00040  23771202.14510         0.00040         0.00040
 120485209.91940  93884587.13540  22927567.96400  22927567.83940  22927575.14240
 108654056.02140  84665535.63240  20676176.43900  20676175.45040  20676178.20840
 17  1 13  0 28  0.0000000  0 15R24G17G15G06R15R14G13R13R17G28G02R23
                                G30G24G19
 102683250.71640  79864786.28340  19202280.20700  19202279.35540  19202285.95440
 107286423.80640  83599823.82140  20415927.32600  20415927.12340  20415930.93840
 123741130.43740  96421670.35040  23547155.69300  23547155.29740  23547161.29240
 114682670.24040  89363144.00840  21823383.26800  21823384.43240  21823391.61540
 122964679.76340  95639227.86040  23011163.15900  23011163.32940  23011174.90240
 106410637.95640  82763851.44940  19962355.31700  19962355.52640  19962365.60240
 121402142.31840  94599081.12640  23102066.33900  23102063.98240  23102070.36740
 107057759.22440  83267162.31040  20048478.05200  20048476.91240  20048485.70740
 114614648.95940  89144763.91640  21418485.28200  21418486.08540  21418492.63240
 116542925.68340  90812674.62140  22177381.02000  22177380.59040  22177385.53740
 127230701.03940  99140796.30240  24211190.39900  24211189.47540  24211189.82340
 113334615.36440  88149170.25140  21186704.81900  21186704.32640  21186713.91140
         0.00040         0.00040  23790667.38610         0.00040         0.00040
 120395249.92440  93814488.46540  22910448.78000  22910448.97840  22910455.87840
 108663321.11040  84672755.18240  20677939.69800  20677938.63340  20677941.36640
 17  1 13  0 28 30.0000000  0 14R24G17G15G06R15R14G13R13R17G28G02R23
                                G24G19
 102687556.11640  79868134.93540  19203085.20100  19203084.78040  19203090.76740
 107332550.93140  83635767.02940  20424704.38900  20424704.63240  20424708.69740
 123782125.26840  96453614.33840  23554955.15900  23554956.63340  23554960.61240
 114599806.98540  89298575.23140  21807615.25100  21807616.09840  21807623.36140
 122851730.49940  95551378.42040  22990028.42200  22990026.44740  22990037.63240
 106342739.76940  82711041.76340  19949618.14500  19949617.55740  19949628.16540
 121481154.52840  94660649.02440  23117099.73700  23117099.73340  23117104.64540
 107101522.49440  83301200.38540  20056674.18500  20056672.59640  20056681.03040
 114511015.88140  89064160.41940  21399118.17400  21399118.54040  21399126.12940
 116611356.27040  90865997.12640  22190402.36000  22190402.04940  22190407.27840
 127111715.61640  99048080.55940  24188548.01810  24188551.84940  24188547.50840
 113437434.66340  88229140.79340  21205924.62600  21205925.10940  21205935.72940
 120305553.15840  93744594.92540  22893378.79600  22893379.79840  22893387.95240
 108672970.74940  84680274.38140  20679775.76700  20679774.82140  20679777.41640
 17  1 13  0 29  0.0000000  0 14R24G17G15G06R15R14G13R13R17G28G02R23
                                G24G19
 102692580.02640  79872042.42440  19204024.17000  19204024.26840  19204030.76240
 107379068.99040  83672014.85440  20433556.48000  20433556.56140  20433560.58640
 123823488.47440  96485845.37740  23562828.07200  23562827.98940  23562833.35140
 114517292.25740  89234278.08040  21791913.38900  21791914.03740  21791921.64140
 122738761.92540  95463514.03740  22968884.70200  22968884.45140  22968896.60240
 106275196.31540  82658507.98240  19936947.56300  19936947.13940  19936957.61240
 121560380.17140  94722383.28040  23132176.22600  23132174.54140  23132181.49440
 107145834.49540  83335665.25240  20064970.90400  20064970.28040  20064979.71540
 114407821.02640  88983897.84040  21379835.22200  21379834.94740  21379843.00840
 116679944.35340  90919442.35040  22203454.37100  22203454.69040  22203459.66140
 126992714.32840  98955352.32040  24165903.77500  24165901.96440  24165906.98640
 113540577.85240  88309363.24140  21225207.53200  21225206.98140  21225217.48440
 120216122.37340  93674908.63040  22876362.43700  22876362.48240  22876369.35340
 108683003.87440  84688092.40040  20681684.56900  20681683.99540  20681686.44840
 17  1 13  0 29 30.0000000  0 14R24G17G15G06R15R14G13R13R17G28G02R23
                                G24G19
 102698320.61240  79876507.33340  19205098.49100  19205097.24140  19205104.33940
 107425975.54640  83708565.40740  20442482.85200  20442482.70440  20442486.91340
 123865217.71940  96518361.64840  23570767.30700  23570767.40140  23570774.26840
 114435128.92140  89170254.71540  21776277.97300  21776278.69140  21776285.81140
 122625776.67240  95375636.67940  22947742.29200  22947742.09840  22947752.77440
 106208010.48840  82606252.35740  19924343.19000  19924342.99340  19924354.15340
 121639816.44640  94784281.60540  23147292.54500  23147291.66740  23147298.50540
 107190694.98540  83370556.72840  20073372.43300  20073371.38440  20073380.19540
 114305066.73640  88903977.82840  21360632.13700  21360631.58740  21360639.81840
 116748689.46540  90973009.95840  22216535.53900  22216536.01140  22216541.15740
 126873699.77140  98862613.77540  24143255.85100  24143255.10540  24143256.77940
 113644040.95740  88389834.51540  21244547.90500  21244548.14240  21244557.96240
 120126960.09740  93605431.55340  22859394.68800  22859394.92740  22859402.50240
 108693419.09740  84696208.16040  20683667.34100  20683666.05440  20683668.60340
 17  1 13  0 30  0.0000000  0 14R24G17G15G06R15R14G13R13R17G28G02R23
                                G24G19
 102704776.08840  79881528.26240  19206304.91400  19206304.76440  19206311.42540
 107473267.77040  83745416.47840  20451481.85400  20451482.10240  20451486.22940
 123907309.93140  96551160.75640  23578778.68900  23578778.96340  23578782.73440
 114353319.53440  89106507.16440  21760710.11600  21760710.52840  21760718.45740
 122512776.68540  95287747.89340  22926594.86800  22926595.07240  22926605.38840
 106141185.43640  82554277.33340  19911808.24100  19911807.24840  19911817.09240
 121719459.67740  94846341.23340  23162448.39200  23162448.92540  23162454.02140
 107236104.40140  83405875.14740  20081875.63000  20081875.03140  20081883.95440
 114202755.34740  88824402.35140  21341514.33500  21341514.08440  21341521.59140
 116817591.01640  91026699.43740  22229649.00900  22229648.21040  22229652.35340
 126754674.23940  98769866.59740  24120605.28600  24120606.02140  24120608.53940
 113747819.45340  88470551.13540  21263948.63700  21263948.74140  21263959.02940
 120038068.81040  93536165.65940  22842479.23400  22842479.07740  22842486.60540
 108704214.82740  84704620.41640  20685720.92100  20685720.31540  20685722.97040
 17  1 13  0 30 30.0000000  0 15R24G17G12G15G06R15R14G13R13R17G28G02
                                R23G24G19
 102711945.41640  79887104.40440  19207645.89300  19207645.46240  19207651.91540
 107520944.36440  83782567.05840  20460555.00100  20460554.70340  20460558.38440
         0.00040         0.00040  24903142.20800         0.00040         0.00040
 123949763.39740  96584241.34140  23586856.19000  23586856.56140  23586860.84940
 114271867.44540  89043038.03840  21745210.84400  21745211.05940  21745218.37340
 122399765.11040  95199850.02440  22905442.26610  22905445.28440  22905457.52340
 106074724.92040  82502585.83240  19899338.96500  19899338.91240  19899349.79140
 121799307.16340  94908559.99440  23177642.11900  23177643.37540  23177646.93240
 107282062.88640  83441620.63340  20090483.39600  20090481.94440  20090490.63640
 114100889.95340  88745173.75340  21322478.67900  21322477.97840  21322485.10340
 116886649.51140  91080511.23740  22242789.90600  22242789.27640  22242793.68640
 126635640.95540  98677113.53540  24097955.15800  24097954.78940  24097960.20740
 113851909.88240  88551510.31340  21283406.55200  21283406.36240  21283417.21840
 119949451.78840  93467113.46340  22825615.76400  22825616.54440  22825623.14340
 108715390.30340  84713328.57740  20687848.17900  20687846.92840  20687849.68740
 17  1 13  0 31  0.0000000  0 15R24G17G12G15G06R15R14G13R13R17G28G02
                                R23G24G19
 102719826.57540  79893234.20740  19209120.24800  19209119.19440  19209126.06540
 107569002.67640  83820015.08740  20469699.96700  20469699.90840  20469703.87240
         0.00040         0.00040  24889192.84100         0.00040         0.00040
 123992575.40240  96617601.34940  23595004.06900  23595003.61640  23595008.49840
 114190775.37440  88979849.43040  21729777.98300  21729779.22040  21729787.14040
 122286744.48240  95111945.17640  22884292.75800  22884295.26240  22884306.56540
 106008631.98640  82451180.23340  19886940.67000  19886940.21540  19886950.33740
 121879356.04540  94970935.66640  23192874.43400  23192876.56640  23192879.15540
 107328570.56340  83477793.25940  20099192.33700  20099191.15140  20099199.96140
 113999472.69140  88666293.67840  21303524.81000  21303524.83140  21303531.86140
 116955864.61740  91134445.03040  22255961.52800  22255960.43440  22255965.33540
 126516602.63140  98584356.47840  24075303.24600  24075301.52240  24075304.87640
 113956308.24940  88632709.01040  21302923.03800  21302923.05140  21302932.97540
 119861111.14140  93398276.62240  22808806.02600  22808805.81540  22808812.70040
 108726943.91540  84722331.38840  20690046.35500  20690045.37240  20690048.23340
 17  1 13  0 31 30.0000000  0 15R24G17G12G15G06R15R14G13R13R17G28G02
                                R23G24G19
 102728418.30540  79899916.66440  19210725.31700  19210725.70040  19210732.15840
 107617440.63440  83857758.94440  20478917.28100  20478917.28040  20478921.17540
         0.00040         0.00040  24875235.47100         0.00040         0.00040
 124035743.44740  96651238.74540  23603219.62800  23603218.95640  23603224.05640
 114110046.10040  88916943.52640  21714417.45200  21714417.88740  21714424.75540
 122173716.83940  95024034.86740  22863144.94800  22863144.85740  22863155.57940
 105942910.01040  82400063.15240  19874610.83800  19874610.56440  19874621.87440
 121959603.01040  95033465.75540  23208146.97400  23208148.50040  23208149.63940
 107375627.65440  83514393.20540  20108004.69800  20108003.66340  20108012.11740
 113898506.22640  88587764.23640  21284657.20300  21284656.81140  21284665.20440
 117025236.29940  91188500.85740  22269162.55100  22269161.40640  22269165.98840
 126397561.85940  98491597.46240  24052648.93300  24052647.20440  24052652.21240
 114061010.53240  88714144.10640  21322497.06200  21322496.37840  21322505.62040
 119773049.67740  93329657.33640  22792048.73500  22792048.12840  22792054.13440
 108738873.98740  84731627.54440  20692316.85500  20692315.80740  20692318.30240
 17  1 13  0 32  0.0000000  0 15R24G17G12G15G06R15R14G13R13R17G28G02
                                R23G24G19
 102737718.35440  79907150.03340  19212465.92500  19212465.07340  19212471.85040
 107666255.93540  83895796.83640  20488206.59700  20488206.71540  20488210.61040
         0.00040         0.00040  24861267.80700         0.00040         0.00040
 124079265.15840  96685151.69840  23611501.52600  23611499.72740  23611505.71240
 114029682.45140  88854322.52840  21699124.05000  21699124.52940  21699132.22040
 122060685.24740  94936121.44340  22841993.17900  22841991.89840  22842004.30940
 105877562.26040  82349237.13440  19862351.31800  19862351.36340  19862362.33640
 122040044.83940  95096147.68340  23223453.88600  23223453.72640  23223456.61440
 107423233.95740  83551420.31040  20116919.68000  20116918.70240  20116927.58140
 113797992.90140  88509587.31940  21265874.43300  21265873.94840  21265881.04840
 117094764.39540  91242678.58140  22282394.57100  22282392.69840  22282397.35840
 126278521.70640  98398838.95040  24029995.19200  24029995.30040  24030001.17040
 114166012.73240  88795812.45640  21342125.69300  21342125.31740  21342136.19440
 119685270.35540  93261257.89840  22775343.90300  22775344.30840  22775350.87040
 108751179.27740  84741216.07940  20694658.45400  20694657.30140  20694660.02340
 17  1 13  0 32 30.0000000  0 15R24G17G12G15G06R15R14G13R13R17G28G02
                                R23G24G19
 102747725.09040  79914933.05040  19214337.19400  19214336.71540  19214342.45140
 107715446.15940  83934126.87240  20497567.06600  20497567.26140  20497570.82240
         0.00040         0.00040  24847287.40310         0.00040         0.00040
 124123137.53840  96719337.90140  23619848.52100  23619849.20240  23619854.32340
 113949687.05840  88791988.47040  21683902.01900  21683902.24340  21683909.43540
 121947651.71240  94848206.54840  22820839.00100  22820839.37640  22820848.95340
 105812591.59240  82298704.40140  19850164.16800  19850163.84040  19850174.15840
 122120678.45140  95158979.01440  23238800.14800  23238798.13840  23238803.46640
 107471389.72440  83588874.77240  20125938.26500  20125936.72440  20125945.72040
 113697935.14940  88431764.56540  21247176.11400  21247175.62540  21247183.01840
 117164448.41240  91296977.77640  22295653.49000  22295652.35540  22295657.69140
 126159484.57540  98306082.81040  24007343.23500  24007343.57340  24007347.29840
 114271310.86940  88877710.98540  21361809.34000  21361809.62140  21361820.75740
 119597775.05240  93193079.78540  22758694.00500  22758694.49840  22758701.23440
 108763858.50540  84751095.99840  20697071.36300  20697070.27440  20697073.03440
 17  1 13  0 33  0.0000000  0 15R24G17G12G15G06R15R14G13R13R17G28G02
                                R23G24G19
 102758437.47540  79923264.90940  19216339.91500  19216339.56440  19216346.21740
 107765009.84440  83972747.92040  20506998.87600  20506998.82540  20507002.88540
         0.00040         0.00040  24833309.19600         0.00040         0.00040
 124167359.07740  96753796.18340  23628264.24200  23628263.64540  23628269.12940
 113870063.36440  88729944.06440  21668749.75600  21668750.22340  21668757.74840
 121834619.59240  94760292.72240  22799688.06700  22799687.73740  22799696.46240
 105748002.00040  82248468.05640  19838047.08600  19838046.38840  19838056.97840
 122201501.43640  95221957.94440  23254177.01700  23254177.88540  23254183.41740
 107520095.16940  83626756.77640  20135059.56900  20135058.21640  20135066.71540
 113598335.87040  88354298.57040  21228562.13200  21228562.54240  21228571.77440
 117234288.99540  91351398.96740  22308943.86500  22308943.87840  22308947.86840
 126040453.71740  98213331.57340  23984694.31100  23984694.11640  23984695.28740
 114376901.49740  88959836.99640  21381548.75200  21381548.90140  21381559.09840
 119510567.24540  93125125.66740  22742097.80600  22742098.82940  22742105.76040
 108776910.64440  84761266.49540  20699554.87900  20699553.82840  20699556.54940
 17  1 13  0 33 30.0000000  0 15R24G17G12G15G06R15R14G13R13R17G28G02
                                R23G24G19
 102769852.50640  79932143.26440  19218474.73900  19218474.28940  19218480.81240
 107814943.78240  84011657.48140  20516501.21200  20516501.15040  20516504.73240
         0.00040         0.00040  24819320.09400         0.00040         0.00040
 124211926.41240  96788523.93340  23636744.66100  23636744.92340  23636750.26440
 113790813.41340  88668190.87540  21653668.18900  21653669.01440  21653676.65140
 121721590.90640  94672381.57340  22778533.82800  22778535.31740  22778544.30040
 105683796.33340  82198530.32540  19826002.24300  19826001.37740  19826012.40840
 122282509.55840  95285081.08040  23269593.11300  23269592.77440  23269600.62140
 107569349.62840  83665065.78440  20144282.82400  20144281.54840  20144290.51740
 113499196.88740  88277190.46740  21210035.71200  21210035.71040  21210044.14740
 117304284.97440  91405941.27740  22322263.79600  22322263.47240  22322267.53640
 125921431.24640  98120586.83340  23962044.08000  23962043.95440  23962047.34340
 114482779.99940  89042186.89840  21401341.60900  21401341.57040  21401351.91240
 119423648.85140  93057397.08440  22725558.59900  22725559.24840  22725566.00540
 108790333.49640  84771725.86840  20702109.64100  20702108.29740  20702110.91140
 17  1 13  0 34  0.0000000  0 15R24G17G12G15G06R15R14G13R13R17G28G02
                                R23G24G19
 102781969.20140  79941567.36840  19220740.72200  19220740.25440  19220746.55640
 107865246.23940  84050854.19140  20526073.01400  20526073.16940  20526077.17940
         0.00040         0.00040  24805319.22700         0.00040         0.00040
 124256837.09040  96823519.24640  23645290.75200  23645291.56540  23645296.52840
 113711940.43340  88606731.43240  21638659.45500  21638660.35640  21638667.94940
 121608568.94740  94584475.62540  22757386.68900  22757385.49840  22757394.07540
 105619978.20340  82148894.01240  19814030.21900  19814029.46740  19814040.22040
 122363700.37740  95348346.67040  23285042.08100  23285041.31040  23285048.42040
 107619153.97240  83703802.49540  20153608.85400  20153607.76940  20153616.75340
 113400520.98440  88200442.60540  21191596.37200  21191596.55840  21191604.61640
 117374436.90040  91460605.07440  22335612.45000  22335612.30640  22335617.23240
 125802420.30840  98027851.13540  23939397.69400  23939396.99440  23939401.15140
 114588942.75140  89124757.89740  21421186.91000  21421186.98140  21421197.99240
 119337023.04640  92989896.49140  22709076.29800  22709075.37240  22709082.23740
 108804126.29840  84782473.51040  20704733.87600  20704732.82640  20704735.66740
 17  1 13  0 34 30.0000000  0 15R24G17G12G15G06R15R14G13R13R17G28G02
                                R23G24G19
 102794785.79840  79951535.83840  19223135.77500  19223136.86140  19223143.40740
 107915915.03840  84090336.36540  20535714.92400  20535715.05240  20535719.17040
         0.00040         0.00040  24791309.93100         0.00040         0.00040
 124302088.76340  96858780.25840  23653902.81700  23653902.20340  23653908.09540
 113633447.11940  88545567.84140  21623723.11900  21623723.40740  21623730.66740
 121495556.28540  94496576.96640  22736234.06500  22736236.21640  22736245.72540
 105556550.80740  82099561.59440  19802131.76300  19802131.09540  19802141.36540
 122445071.02040  95411752.27740  23300526.95900  23300528.53740  23300533.48140
 107669507.64040  83742966.43240  20163039.78400  20163038.00240  20163046.51840
 113302310.60540  88124056.77840  21173243.12800  21173243.39840  21173251.23840
 117444744.58840  91515390.25440  22348992.50100  22348991.50140  22348997.12640
 125683423.61940  97935126.49140  23916753.10400  23916751.06140  23916756.36840
 114695385.88740  89207546.96040  21441086.25100  21441086.33840  21441096.03340
 119250692.09440  92922625.64540  22692645.79200  22692646.59540  22692653.76740
 108818287.23040  84793508.00540  20707428.58900  20707427.71340  20707430.41040
 17  1 13  0 35  0.0000000  0 15R24G17G12G15G06R15R14G13R13R17G28G02
                                R23G24G19
 102808299.70940  79962046.66840  19225665.05700  19225664.26040  19225670.76740
 107966947.72940  84130102.10340  20545426.77400  20545426.69040  20545430.19240
         0.00040         0.00040  24777294.21100         0.00040         0.00040
 124347678.80940  96894304.95740  23662577.72600  23662578.05140  23662582.67140
 113555336.27340  88484702.27840  21608859.84300  21608859.76940  21608866.93240
 121382555.25140  94408687.28940  22715089.85300  22715090.11840  22715099.63740
 105493517.53140  82050535.71740  19790305.89500  19790305.14640  19790316.91040
 122526617.83240  95475295.22840  23316046.41000  23316046.15040  23316050.78340
 107720410.47640  83782557.51140  20172572.03100  20172570.75840  20172579.04740
 113204567.78640  88048034.58640  21154976.99800  21154977.75240  21154985.54040
 117515207.80740  91570296.62340  22362401.30800  22362400.26540  22362405.82840
 125564444.02740  97842415.19240  23894111.57800  23894110.75940  23894113.64340
 114802105.83040  89290551.33640  21461036.55100  21461036.07740  21461046.32140
 119164658.79340  92855586.73340  22676275.52000  22676275.09040  22676282.35840
 108832814.94440  84804828.30740  20710193.34200  20710192.22040  20710194.73940
 17  1 13  0 35 30.0000000  0 15R24G17G12G15G06R15R14G13R13R17G28G02
                                R23G24G19
 102822509.09640  79973098.42140  19228321.48900  19228321.18140  19228327.65340
 108018342.01040  84170149.58940  20555205.92000  20555206.26740  20555210.36040
         0.00040         0.00040  24763263.82400         0.00040         0.00040
 124393604.58840  96930091.25740  23671317.29500  23671317.11940  23671322.66840
 113477610.44840  88424136.73240  21594067.93500  21594068.74240  21594075.73140
 121269568.32940  94320808.62740  22693944.44800  22693945.61640  22693955.46640
 105430881.51340  82001818.81640  19778557.17700  19778555.98940  19778565.96740
 122608337.71340  95538972.98240  23331594.54800  23331595.81740  23331600.31540
 107771862.15840  83822575.47140  20182206.54900  20182205.60740  20182214.20940
 113107294.92540  87972377.96540  21136798.35400  21136799.32040  21136808.40140
 117585826.26140  91625323.95740  22375838.35700  22375837.93640  22375843.79740
 125445483.90240  97749719.02140  23871473.74100  23871474.37040  23871476.19440
 114909097.93740  89373767.38140  21481037.41600  21481037.03140  21481047.77640
 119078925.17640  92788781.35840  22659959.39800  22659960.16240  22659967.16640
 108847707.94940  84816433.24740  20713026.91100  20713025.97140  20713028.81440
 17  1 13  0 36  0.0000000  0 15R24G17G12G15G06R15R14G13R13R17G28G02
                                R23G24G19
 102837412.71240  79984690.13040  19231108.22400  19231108.48740  19231114.70940
 108070096.02840  84210477.39040  20565054.99700  20565054.82840  20565058.88340
         0.00040         0.00040  24749229.43100         0.00040         0.00040
 124439863.89340  96966137.44740  23680118.79800  23680119.08840  23680125.17840
 113400272.85240  88363873.69140  21579351.77900  21579351.91140  21579359.34940
 121156598.91340  94232943.59640  22672806.25700  22672805.52040  22672814.44440
 105368646.59240  81953413.88740  19766880.18400  19766880.65140  19766890.87140
 122690228.10440  95602783.64640  23347179.74200  23347178.34140  23347182.18440
 107823863.23540  83863020.76140  20191945.62300  20191943.49840  20191952.46840
 113010494.73540  87897088.96240  21118709.70500  21118710.55040  21118717.10940
 117656600.26140  91680472.49540  22389306.70100  22389306.53240  22389311.26140
 125326546.66740  97657040.69940  23848841.38700  23848841.63540  23848847.67840
 115016359.13240  89457192.72040  21501088.70400  21501088.53440  21501098.37540
 118993494.73440  92722212.20140  22643703.63600  22643703.55140  22643710.52340
 108862965.56140  84828322.29940  20715930.86000  20715929.56440  20715932.18140
 17  1 13  0 36 30.0000000  0 15R24G17G12G15G06R15R14G13R13R17G28G02
                                R23G24G19
 102853007.87540  79996819.70740  19234025.14200  19234024.80240  19234031.00640
 108122207.20340  84251083.49840  20574971.35500  20574971.33840  20574975.22440
         0.00040         0.00040  24735183.22500         0.00040         0.00040
 124486453.76640  97002441.18040  23688984.32000  23688985.36240  23688991.97240
 113323325.86840  88303915.04140  21564708.88400  21564709.17140  21564716.33440
 121043649.50740  94145094.11140  22651667.01900  22651667.21240  22651678.62840
 105306815.21540  81905322.81540  19755281.65100  19755281.04840  19755291.36840
 122772285.56040  95666724.40240  23362796.45000  23362796.91540  23362800.72840
 107876413.22940  83903892.95540  20201785.52400  20201784.73140  20201793.47340
 112914169.33540  87822169.25340  21100708.97500  21100709.02640  21100718.08940
 117727529.33540  91735741.88940  22402804.82600  22402803.65640  22402807.99340
 125207634.85040  97564382.19640  23826213.40700  23826213.51940  23826218.46740
 115123885.08140  89540823.98840  21521191.19900  21521189.73340  21521200.56040
 118908369.98940  92655881.24340  22627503.98600  22627504.65140  22627511.47540
 108878585.04940  84840493.33440  20718902.86300  20718901.82440  20718904.44140
 17  1 13  0 37  0.0000000  0 15R24G17G12G15G06R15R14G13R13R17G28G02
                                R23G24G19
 102869292.73840  80009485.71740  19237070.72400  19237070.44440  19237076.66440
 108174673.39940  84291966.24440  20584954.97200  20584955.18140  20584959.35740
         0.00040         0.00040  24721135.67900         0.00040         0.00040
 124533371.62740  97039000.51940  23697914.76500  23697915.32740  23697919.14040
 113246772.27040  88244262.91140  21550141.41700  21550141.74540  21550148.81340
 120930722.57140  94057262.09940  22630535.62200  22630535.91040  22630545.55540
 105245391.30040  81857548.66840  19743758.12200  19743757.63640  19743768.70840
 122854506.93240  95730792.99740  23378441.50700  23378440.80840  23378444.66640
 107929511.94940  83945191.93740  20211729.74300  20211728.51940  20211737.18640
 112818320.99640  87747620.58540  21082798.30900  21082798.19040  21082805.79340
 117798613.33740  91791131.97740  22416332.50000  22416331.05740  22416335.62240
 125088751.12640  97471745.55440  23803590.85900  23803589.78340  23803592.66440
 115231672.12740  89624658.32140  21541339.80500  21541339.16640  21541349.83440
 118823553.43040  92589790.44640  22611364.73300  22611364.86440  22611371.67840
 108894565.47240  84852945.61140  20721943.90100  20721942.79840  20721945.47040
 17  1 13  0 37 30.0000000  0 15R24G17G12G15G06R15R14G13R13R17G28G02
                                R23G24G19
 102886265.20940  80022686.53340  19240244.65400  19240243.97040  19240250.52040
 108227492.23340  84333123.76840  20595005.71400  20595006.04340  20595010.28840
         0.00040         0.00040  24707070.58900         0.00040         0.00040
 124580615.05940  97075813.56640  23706907.22900  23706904.86640  23706909.47140
 113170614.79840  88184919.45840  21535648.82900  21535649.30940  21535656.50140
 120817821.04640  93969449.86040  22609405.12500  22609406.78740  22609416.65640
 105184377.88840  81810093.79840  19732311.28900  19732311.84240  19732322.84040
 122936889.27040  95794986.97840  23394117.78000  23394118.69040  23394122.46540
 107983159.11540  83986917.49140  20221775.76000  20221774.93440  20221783.34340
 112722951.88940  87673444.61940  21064975.40900  21064975.55040  21064984.21640
 117869852.21540  91846642.77640  22429887.25400  22429886.93240  22429891.33140
 124969898.53840  97379133.18240  23780972.59800  23780972.19740  23780977.08540
 115339716.39740  89708692.71840  21561536.19400  21561536.77040  21561547.16540
 118739047.34340  92523941.56640  22595283.55900  22595284.12740  22595291.77940
 108910905.34040  84865677.97940  20725053.31600  20725052.51740  20725054.91140
 17  1 13  0 38  0.0000000  0 16R24G17G12G15G06R15R14G13R13R17G28G02
                                R23G30G24G19
 102903923.29540  80036420.59940  19243546.83600  19243546.15440  19243552.83040
 108280661.56040  84374554.41340  20605124.09500  20605124.09540  20605127.91240
         0.00040         0.00040  24693001.30900         0.00040         0.00040
 124628181.22340  97112878.02740  23715954.95700  23715956.09640  23715962.12440
 113094856.23840  88125886.83540  21521232.83200  21521232.95240  21521240.54740
 120704947.65140  93881659.50040  22588284.64600  22588284.24640  22588294.48040
 105123778.08140  81762960.62040  19720944.50200  19720943.95740  19720954.49640
 123019429.50240  95859303.99740  23409824.28100  23409824.33640  23409830.94340
 108037354.41140  84029069.38040  20231925.45000  20231923.73440  20231931.92640
 112628064.49240  87599643.37140  21047243.54000  21047244.16440  21047252.88640
 117941245.92540  91902274.18540  22443473.71500  22443472.52540  22443477.34840
 124851079.73440  97286547.13440  23758364.18500  23758362.20740  23758366.18640
 115448013.84140  89792924.04840  21581782.97400  21581782.46840  21581793.09440
         0.00040         0.00040  24186359.40510         0.00040         0.00040
 118654854.84040  92458337.04440  22579261.13000  22579262.44540  22579268.70140
 108927603.41040  84878689.46240  20728230.93400  20728229.86340  20728232.39740
 17  1 13  0 38 30.0000000  0 15R24G17G12G15G06R15R14G13R13R17G28G02
                                R23G24G19
 102922265.30540  80050686.61440  19246976.18100  19246976.00740  19246982.87940
 108334179.44340  84416256.65340  20615307.87300  20615308.12640  20615312.33340
 129688613.00640 101056075.94540  24678922.63100  24678926.39440  24678927.46740
 124676067.98540  97150192.33240  23725067.60100  23725068.06040  23725074.27640
 113019499.60640  88067167.41040  21506892.09500  21506892.91740  21506900.31740
 120592105.69540  93793893.62640  22567165.89300  22567166.60040  22567177.39540
 105063595.75540  81716152.15540  19709653.35000  19709653.48940  19709664.07440
 123102124.67140  95923741.74540  23425562.85500  23425562.34040  23425566.43740
 108092098.32540  84071647.97640  20242175.69200  20242175.46540  20242184.66540
 112533661.29740  87526218.67440  21029603.10500  21029602.39640  21029610.36540
 118012794.56640  91958026.35540  22457089.20800  22457088.41140  22457092.26540
 124732297.92040  97193990.00640  23735759.65800  23735759.00840  23735761.28240
 115556561.34140  89877349.85740  21602073.78300  21602073.62340  21602085.43440
 118570978.46240  92392978.85040  22563299.90800  22563301.04340  22563307.83140
 108944658.58140  84891979.20740  20731475.62400  20731475.07740  20731477.95540
 17  1 13  0 39  0.0000000  0 15R24G17G12G15G06R15R14G13R13R17G28G02
                                R23G24G19
 102941288.39740  80065482.35340  19250533.21500  19250533.97340  19250539.94840
 108388043.14140  84458228.35140  20625558.09000  20625558.03140  20625562.20440
 129614583.12740 100998390.36640  24664833.70900  24664836.64040  24664836.36840
 124724272.42740  97187754.16840  23734239.13200  23734240.81740  23734245.72340
 112944547.06040  88008762.84440  21492628.91300  21492629.76240  21492637.18940
 120479297.31340  93706153.80340  22546056.53800  22546056.00340  22546067.47240
 105003833.81640  81669670.65840  19698442.40200  19698442.36140  19698453.25040
 123184971.45640  95988297.59740  23441327.91900  23441325.74040  23441329.78740
 108147389.90540  84114652.52940  20252531.65900  20252530.20040  20252538.98840
 112439744.14940  87453172.04040  21012052.24000  21012052.24540  21012060.51940
 118084497.55740  92013898.75340  22470733.12300  22470731.89940  22470737.88140
 124613555.64840  97101463.61940  23713163.99200  23713162.16540  23713168.01340
 115665354.18740  89961966.46440  21622412.88000  21622412.22940  21622423.08840
 118487420.62640  92327868.86440  22547401.54700  22547401.15440  22547407.58240
 108962068.51940  84905545.39640  20734788.84900  20734788.11440  20734791.10840
 17  1 13  0 39 30.0000000  0 16R24G17G12G15G06R15R14G13R13R17G28G02
                                R23G30G24G19
 102960990.50940  80080806.22440  19254217.71100  19254218.18640  19254224.12040
 108442250.54540  84500467.87740  20635873.21600  20635873.56840  20635877.52940
 129540507.65040 100940669.17740  24650739.13200  24650735.20240  24650743.61240
 124772791.72240  97225561.39940  23743472.93000  23743474.88840  23743479.43140
 112870001.38640  87950675.32840  21478444.32400  21478444.53140  21478451.89040
 120366525.64040  93618442.57440  22524952.22110  22524953.14940  22524962.78240
 104944495.84340  81623518.90640  19687311.12600  19687311.07540  19687321.66440
 123267966.73240  96052969.20640  23457121.79200  23457118.65440  23457123.63140
 108203228.77140  84158082.74740  20262988.07600  20262986.75540  20262995.97540
 112346315.18940  87380505.11540  20994591.83900  20994592.30140  20994599.83040
 118156354.87640  92069891.43340  22484406.61900  22484406.93040  22484411.82140
 124494855.51740  97008970.10440  23690576.51200  23690575.85040  23690579.69240
 115774388.87940  90046771.19640  21642795.12000  21642794.35840  21642804.82840
         0.00040         0.00040  24246664.38900         0.00040         0.00040
 118404184.16240  92263009.31140  22531561.53300  22531561.57140  22531568.25740
 108979832.03340  84919387.09840  20738169.71600  20738168.57340  20738171.18640
 17  1 13  0 40  0.0000000  0 16R24G17G12G15G06R15R14G13R13R17G28G02
                                R23G30G24G19
 102981369.35040  80096656.43940  19258028.62300  19258028.94040  19258035.58840
 108496799.34840  84542973.43340  20646253.79900  20646253.72440  20646258.04240
 129466386.48240 100882912.39940  24636635.10500  24636632.83240  24636635.58140
 124821622.71640  97263611.49440  23752766.43200  23752766.37440  23752772.14640
 112795865.06540  87892906.80040  21464336.82200  21464336.43140  21464343.58840
 120253793.25740  93530761.92340  22503855.25100  22503856.55240  22503867.61740
 104885584.20640  81577698.75340  19676259.21200  19676259.19440  19676269.60940
 123351107.29140  96117753.97940  23472942.16900  23472942.79740  23472944.95940
 108259614.53440  84201938.32540  20273547.49100  20273546.57240  20273554.87340
 112253376.54240  87308219.51540  20977224.22600  20977224.28740  20977233.33940
 118228366.20340  92126004.10740  22498110.48200  22498110.18040  22498115.17240
 124376200.33240  96916511.63440  23667996.14100  23667996.30040  23667999.25840
 115883661.52040  90131760.97040  21663221.43800  21663221.83640  21663232.32840
         0.00040         0.00040  24266813.78500         0.00040         0.00040
 118321271.34040  92198401.94940  22515783.75900  22515783.51840  22515790.42440
 108997947.32640  84933502.90640  20741616.98900  20741616.02240  20741618.38240
 17  1 13  0 40 30.0000000  0 16R24G17G12G15G06R15R14G13R13R17G28G02
                                R23G30G24G19
 103002423.09240  80113031.57440  19261966.78900  19261966.33340  19261972.45140
 108551687.24540  84585743.21440  20656698.26100  20656698.71240  20656702.52240
 129392219.62640 100825120.19340  24622515.52910  24622517.04340  24622528.14940
 124870763.51840  97301902.95140  23762116.54500  23762117.56740  23762124.35240
 112722141.16440  87835459.60840  21450307.26200  21450307.97740  21450314.75840
 120141103.60440  93443114.49540  22482769.11400  22482768.45540  22482778.87240
 104827103.22040  81532213.54040  19665289.13800  19665288.52540  19665298.57540
 123434390.34540  96182649.81540  23488788.99600  23488790.65540  23488793.54640
 108316547.12240  84246219.21640  20284209.71300  20284208.05140  20284216.43140
 112160930.63440  87236317.18140  20959949.30500  20959948.88340  20959955.77740
 118300531.80440  92182236.99140  22511844.23400  22511842.80440  22511847.62840
 124257593.17040  96824090.41740  23645424.96200  23645425.60840  23645428.34840
 115993168.48240  90216933.01040  21683694.08000  21683693.50240  21683703.62240
         0.00040         0.00040  24286989.54700         0.00040         0.00040
 118238685.39640  92134049.29740  22500066.49500  22500067.93740  22500075.07240
 109016413.35440  84947892.02540  20745130.66000  20745129.64340  20745132.25940
 17  1 13  0 41  0.0000000  0 16R24G17G12G15G06R15R14G13R13R17G28G02
                                R23G30G24G19
 103024149.74940  80129930.07940  19266030.29100  19266029.24540  19266035.48940
 108606912.34440  84628775.75040  20667206.98500  20667207.26540  20667211.77640
 129318007.73040 100767292.73440  24608398.61100  24608398.06640  24608400.69440
 124920211.74040  97340433.96740  23771527.98300  23771527.51440  23771533.92040
 112648832.54440  87778336.03340  21436357.80600  21436357.46240  21436364.78140
 120028459.76840  93355502.66640  22461688.13100  22461688.62140  22461699.03440
 104769055.96940  81487065.68440  19654397.88000  19654398.30440  19654409.64740
 123517812.80940  96247654.23740  23504667.76500  23504665.49040  23504670.69740
 108374026.78340  84290925.58840  20294972.57100  20294971.88940  20294980.79940
 112068979.84040  87164799.92040  20942765.94900  20942765.29840  20942774.07840
 118372851.65740  92238590.08540  22525606.12800  22525605.21440  22525609.77740
 124139037.40340  96731709.34740  23622866.64300  23622865.31040  23622870.04240
 116102906.29740  90302284.61540  21704208.43600  21704207.44640  21704217.87340
         0.00040         0.00040  24307180.88710         0.00040         0.00040
 118156429.15840  92069953.55140  22484414.94900  22484415.19140  22484422.32940
 109035228.67640  84962553.30840  20748711.29200  20748710.10940  20748712.67440
 17  1 13  0 41 30.0000000  0 15R24G17G12G15G06R15R14G13R13R17G28G02
                                R23G24G19
 103046546.59340  80147349.85440  19270217.91600  19270217.93740  19270223.93240
 108662472.24440  84672069.16140  20677780.43300  20677780.56840  20677784.38340
 129243750.69340 100709430.13940  24594270.00200  24594266.63440  24594271.65440
 124969964.06840  97379201.93440  23780996.84400  23780995.61640  23781000.68840
 112575941.48940  87721537.83240  21422485.91900  21422486.47640  21422493.83640
 119915863.76840  93267928.03640  22440616.65600  22440617.82940  22440627.91840
 104711445.84340  81442257.81540  19643591.34700  19643591.08740  19643601.70240
 123601371.58040  96312764.97040  23520565.81700  23520564.31940  23520568.33240
 108432052.68140  84336056.82040  20305839.84300  20305838.43340  20305846.99240
 111977526.16440  87093669.31940  20925674.80100  20925675.10140  20925683.14240
 118445325.33540  92295063.03740  22539395.91600  22539396.15340  22539401.07240
 124020535.32440  96639370.09440  23600312.86700  23600312.76540  23600317.39940
 116212871.05040  90387812.72340  21724765.18600  21724764.42840  21724774.78040
 118074504.67440  92006116.32140  22468824.93800  22468825.18140  22468832.00340
 109054391.71440  84977485.55040  20752358.01000  20752356.83540  20752359.34740
 17  1 13  0 42  0.0000000  0 15R24G17G12G15G06R15R14G13R13R17G28G02
                                R23G24G19
 103069611.13040  80165288.94240  19274531.01500  19274530.45140  19274537.45140
 108718364.34540  84715621.44640  20688416.22500  20688416.17440  20688420.12040
 129169447.83040 100651531.86440  24580129.10200  24580129.49240  24580130.95740
 125020017.87240  97418204.86840  23790519.50500  23790520.03640  23790527.00340
 112503470.36440  87665066.83140  21408695.17700  21408695.70140  21408702.60140
 119803318.75240  93180393.04140  22419557.14500  22419556.89340  22419566.74040
 104654275.46340  81397791.98340  19632866.30000  19632866.02140  19632876.58940
 123685063.21240  96377979.14140  23536491.42300  23536492.21740  23536495.01040
 108490623.87840  84381612.18040  20316808.03800  20316806.58640  20316815.20440
 111886571.21540  87022926.59840  20908678.31800  20908678.00140  20908686.79940
 118517952.56340  92351655.63540  22553217.14500  22553216.91040  22553221.76440
 123902089.65640  96547074.78540  23577776.05900  23577773.23440  23577778.67440
 116323058.61740  90473514.12440  21745361.76600  21745362.74340  21745373.62140
 117992914.32640  91942539.44440  22453299.03900  22453298.76640  22453306.11940
 109073900.37640  84992687.10140  20756070.38600  20756069.07540  20756071.65040
 17  1 13  0 42 30.0000000  0 15R24G17G12G15G06R15R14G13R13R17G28G02
                                R23G24G19
 103093341.35840  80183745.78140  19278967.51000  19278968.13540  19278974.74640
 108774586.91640  84759431.22740  20699115.09700  20699115.10140  20699119.32540
 129095099.92540 100593598.43240  24565977.08100  24565977.52840  24565982.54040
 125070371.04740  97457441.07940  23800100.58700  23800100.82840  23800109.29740
 112431422.29940  87608925.48040  21394985.03800  21394985.46740  21394992.63040
 119690828.30440  93092900.51640  22398505.63000  22398505.82040  22398514.87940
 104597548.80440  81353671.25440  19622225.25300  19622224.19740  19622235.17540
 123768885.17240  96443294.86640  23552443.00600  23552443.70740  23552446.93540
 108549740.57040  84427591.80940  20327879.06100  20327877.55240  20327886.30040
 111796117.67740  86952573.87740  20891775.45300  20891774.79640  20891782.80840
 118590733.73140  92408368.20240  22567066.30100  22567067.37040  22567070.83940
 123783703.77540  96454826.11840  23555247.55600  23555248.49640  23555252.21540
 116433465.45740  90559386.05240  21766004.41900  21766002.44340  21766012.02240
 117911661.01040  91879225.20640  22437837.39400  22437836.50240  22437843.87740
 109093754.01240  85008157.46440  20759847.88400  20759847.26240  20759849.63940
 17  1 13  0 43  0.0000000  0 15R24G17G12G15G06R15R14G13R13R17G28G02
                                R23G24G19
 103117734.80240  80202718.46340  19283529.98100  19283529.86540  19283536.35740
 108831137.61540  84803496.69840  20709875.87700  20709876.17840  20709880.49540
 129020706.65440 100535629.78240  24551824.79600  24551822.43340  24551825.44940
 125121020.33740  97496907.99840  23809742.92200  23809741.52640  23809745.24940
 112359799.59640  87553115.60540  21381355.83800  21381356.12940  21381363.59140
 119578394.79140  93005452.28240  22377466.83400  22377465.37440  22377474.99840
 104541268.90340  81309898.00140  19611667.04000  19611666.54440  19611676.85440
 123852834.05540  96508709.60440  23568416.03700  23568418.87940  23568420.03640
 108609402.05240  84473995.17340  20339051.14700  20339050.05940  20339059.18640
 111706167.39240  86882612.58240  20874965.97800  20874965.58740  20874973.15240
 118663668.31240  92465200.31740  22580945.59800  22580945.43140  22580950.16040
 123665380.28740  96362626.12640  23532735.30900  23532730.92740  23532733.91340
 116544087.96340  90645425.74140  21786682.71000  21786681.88640  21786692.74340
 117830747.43740  91816175.69640  22422440.22300  22422439.79740  22422446.30640
 109113950.77840  85023895.20740  20763691.40100  20763690.52140  20763693.12940
 17  1 13  0 43 30.0000000  0 15R24G17G12G15G06R15R14G13R13R17G28G02
                                R23G24G19
 103142789.14940  80222205.17840  19288215.75900  19288215.12240  19288221.68340
 108888014.00940  84847815.95640  20720699.75300  20720699.75440  20720703.54040
 128946268.47740 100477626.01340  24537654.82500  24537656.33540  24537663.05240
 125171962.91640  97536603.48540  23819433.64100  23819434.49440  23819439.93040
 112288604.94740  87497639.27140  21367807.70600  21367808.16740  21367815.38840
 119466021.50940  92918050.90040  22356435.50500  22356435.97940  22356446.50440
 104485438.82940  81266474.62340  19601193.08300  19601192.88940  19601204.02540
 123936906.60840  96574220.60040  23584415.77800  23584416.04240  23584420.67040
 108669607.67340  84520821.73840  20350326.62600  20350325.15040  20350333.88940
 111616722.43140  86813044.28640  20858250.86600  20858250.75140  20858258.34440
 118736756.42740  92522152.05240  22594854.89500  22594854.51940  22594859.14340
 123547122.31240  96270477.15640  23510227.46500  23510225.96240  23510230.92740
 116654922.48740  90731630.33440  21807400.71200  21807401.30440  21807410.95640
 117750176.40440  91753393.09940  22407106.78600  22407107.86840  22407114.59040
 109134489.17840  85039899.15640  20767600.10300  20767598.82440  20767601.36040
 17  1 13  0 44  0.0000000  0 15R24G17G12G15G06R15R14G13R13R17G28G02
                                R23G24G19
 103168501.66840  80242203.80240  19293024.07100  19293023.81340  19293029.67340
 108945213.74340  84892387.16840  20731583.66800  20731584.14940  20731588.46240
 128871784.89940 100419586.87640  24523485.29500  24523483.66240  24523488.54740
 125223196.03640  97576525.33540  23829182.78600  23829183.15340  23829189.40040
 112217840.67840  87442498.29340  21354341.35200  21354341.88240  21354349.82540
 119353711.05440  92830698.35640  22335418.21100  22335418.28140  22335428.15140
 104430061.93440  81223403.71040  19590805.00700  19590804.24740  19590814.67140
 124021099.77840  96639825.64340  23600438.27000  23600438.91540  23600439.69740
 108730357.14640  84568071.29840  20361702.60900  20361701.24540  20361709.79740
 111527784.61340  86743870.45640  20841630.35700  20841630.43140  20841636.89040
 118809997.87440  92579223.26140  22608791.66200  22608791.00540  22608795.73940
 123428932.04440  96178380.99940  23487733.00900  23487734.84940  23487742.02840
 116765964.88340  90817996.61940  21828160.88300  21828159.50340  21828169.98640
 117669950.03240  91690879.05440  22391840.50700  22391840.96740  22391847.37340
 109155367.28340  85056167.80240  20771572.53900  20771571.64940  20771574.48640
 17  1 13  0 44 30.0000000  0 15R24G17G12G15G06R15R14G13R13R17G28G02
                                R23G24G19
 103194870.15840  80262712.62340  19297954.70200  19297954.79240  19297961.40740
 109002734.55040  84937208.56140  20742529.58600  20742529.79640  20742534.42840
 128797256.38740 100361512.78040  24509300.23500  24509299.51740  24509307.60640
 125274717.39540  97616671.76740  23838988.41600  23838987.24740  23838993.98740
 112147509.49940  87387694.79940  21340957.88700  21340958.52740  21340965.79340
 119241466.61240  92743397.17940  22314412.53900  22314413.26540  22314422.37640
 104375141.81340  81180688.07040  19580502.18600  19580501.33740  19580511.89740
 124105410.74040  96705522.51940  23616481.21100  23616479.76140  23616487.15340
 108791649.76540  84615743.31640  20373180.71600  20373179.52040  20373188.41040
 111439356.11840  86675092.75540  20825104.05200  20825104.95440  20825113.16440
 118883392.25440  92636413.66440  22622757.99600  22622758.13040  22622762.84040
 123310812.89940  96086340.14140  23465259.02400  23465257.07740  23465261.56140
 116877211.57840  90904521.78840  21848956.92300  21848955.62240  21848966.93640
 117590071.39740  91628635.99940  22376640.62600  22376641.04040  22376647.38240
 109176583.66640  85072700.04440  20775610.43200  20775609.13740  20775611.76540
 17  1 13  0 45  0.0000000  0 15R24G17G12G15G06R15R14G13R13R17G28G02
                                R23G24G19
 103221892.00440  80283729.60740  19303008.37500  19303008.01040  19303014.19740
 109060574.60840  84982278.72240  20753536.49300  20753536.80640  20753540.75740
 128722682.95340 100303403.69140  24495110.90800  24495109.93240  24495115.51440
 125326524.22640  97657040.65240  23848846.38500  23848845.34340  23848852.55040
 112077614.06340  87333230.82940  21327657.97600  21327657.87640  21327665.21040
 119129291.42040  92656149.87540  22293419.96400  22293421.09340  22293430.13340
 104320681.23640  81138329.84540  19570284.25500  19570284.40440  19570295.14440
 124189836.56340  96771308.74040  23632545.30000  23632548.01540  23632552.68440
 108853484.94340  84663837.32540  20384760.28800  20384759.15340  20384767.99740
 111351438.95040  86606712.76340  20808675.48500  20808675.19240  20808683.30840
 118956939.60340  92693723.26040  22636754.22800  22636753.72140  22636758.54240
 123192767.78240  95994356.97040  23442797.59900  23442795.89140  23442798.97940
 116988659.32540  90991203.34140  21869791.27700  21869790.03540  21869801.13040
 117510542.92040  91566665.77340  22361505.45900  22361506.54940  22361513.87040
 109198136.90640  85089494.76640  20779711.30800  20779710.53440  20779713.51740
 17  1 13  0 45 30.0000000  0 15R24G17G12G15G06R15R14G13R13R17G28G02
                                R23G24G19
 103249564.79640  80305252.89340  19308182.58600  19308182.94840  19308189.44240
 109118731.24840  85027595.58140  20764603.21900  20764603.27940  20764607.42840
 128648064.82740 100245259.71640  24480909.67100  24480910.13040  24480916.25340
 125378613.75140  97697629.86540  23858758.80400  23858759.33440  23858762.29840
 112008156.77640  87279108.28140  21314440.98500  21314440.82040  21314447.96640
 119017188.29540  92568958.59240  22272442.70900  22272442.21040  22272450.47640
 104266684.17840  81096332.14540  19560155.16800  19560154.96240  19560165.25840
 124274373.97040  96837182.06440  23648629.90100  23648629.85440  23648638.32240
 108915862.31440  84712353.03840  20396442.54600  20396440.73740  20396449.57240
 111264035.06340  86538732.01740  20792342.42200  20792342.06640  20792350.55740
 119030639.94540  92751152.06040  22650779.51000  22650778.31440  22650782.70740
 123074799.43940  95902433.63840  23420345.65700  23420342.36340  23420349.81940
 117100304.12240  91078038.12740  21890660.26600  21890660.37640  21890670.42740
 117431366.84540  91504970.14840  22346441.28100  22346440.39440  22346447.04040
 109220025.54640  85106550.84740  20783877.34000  20783876.09040  20783878.76240
 17  1 13  0 46  0.0000000  0 15R24G17G12G15G06R15R14G13R13R17G28G02
                                R23G24G19
 103277885.85340  80327280.37640  19313479.39400  19313479.16140  19313485.46940
 109177202.18640  85073157.34240  20775730.47400  20775730.41840  20775734.20840
 128573401.76840 100187080.72140  24466702.59900  24466702.86840  24466708.08340
 125430982.79140  97738436.86740  23868726.11900  23868724.50540  23868730.55640
 111939139.95440  87225328.95240  21301306.35500  21301307.30340  21301314.68440
 118905160.03240  92481825.56240  22251478.35700  22251478.19040  22251487.86940
 104213152.83640  81054696.66440  19550112.62500  19550112.32240  19550122.87340
 124359019.50940  96903139.60140  23664737.69900  23664740.77340  23664747.56840
 108978780.77540  84761289.59940  20408223.69600  20408223.04840  20408231.97840
 111177146.14240  86471151.76740  20776104.78700  20776105.03240  20776113.16740
 119104492.79940  92808699.69440  22664832.32700  22664831.21540  22664836.86040
 122956910.55040  95810572.23340  23397914.03500  23397913.12740  23397916.17440
 117212142.07740  91165023.15740  21911569.18200  21911567.92240  21911578.14740
 117352545.92640  91443551.27140  22331441.38900  22331441.09940  22331447.62040
 109242247.58640  85123866.71740  20788105.42600  20788104.47240  20788107.15640
 17  1 13  0 46 30.0000000  0 15R24G17G12G15G06R15R14G13R13R17G28G02
                                R23G24G19
 103306852.82740  80349810.24640  19318896.66400  19318896.09140  19318902.74440
 109235985.63440  85118962.60940  20786915.91300  20786916.20940  20786920.80740
 128498694.15240 100128867.06040  24452487.01900  24452487.29340  24452491.75540
 125483628.77840  97779459.70040  23878741.97900  23878742.56440  23878746.76040
 111870566.35440  87171895.00040  21288257.36500  21288258.01840  21288265.15240
 118793210.24940  92394753.53340  22230528.81900  22230528.16040  22230538.98540
 104160091.02840  81013426.37640  19540158.15600  19540158.47740  19540169.16740
 124443770.82640  96969179.52540  23680866.83600  23680866.47640  23680871.82840
 109042240.24640  84810646.92740  20420109.13300  20420107.06940  20420115.63140
 111090774.39240  86403973.78040  20759964.56100  20759964.48540  20759971.63040
 119178498.36640  92866366.31640  22678915.98700  22678915.18540  22678919.71640
 122839104.29640  95718775.05140  23375497.77000  23375495.74340  23375501.86540
 117324169.98340  91252155.92240  21932510.48400  21932510.36540  21932521.24340
 117274083.02540  91382411.36740  22316510.17500  22316510.27640  22316516.68140
 109264802.25340  85141441.77740  20792397.37900  20792396.46740  20792399.34240
 17  1 13  0 47  0.0000000  0 15R24G17G12G15G06R15R14G13R13R17G28G02
                                R23G24G19
 103336463.63440  80372840.87340  19324433.11500  19324433.25940  19324439.67940
 109295079.21340  85165009.54040  20798161.33400  20798161.57240  20798165.59540
 128423942.38340 100070619.00040  24438264.13300  24438263.24740  24438267.99940
 125536549.53540  97820696.63540  23888813.04100  23888812.86740  23888818.54240
 111802438.81440  87118808.62240  21275293.67200  21275294.02440  21275300.92940
 118681341.99140  92307744.94140  22209591.83700  22209593.42540  22209603.85140
 104107502.29840  80972524.03240  19530293.74700  19530292.96540  19530303.43940
 124528624.54740  97035299.26540  23697015.31700  23697015.67740  23697020.92440
 109106239.78940  84860424.33240  20432092.92200  20432092.22640  20432100.55140
 111004922.02040  86337199.73740  20743920.75200  20743920.20540  20743928.04940
 119252656.78640  92924152.04840  22693027.75800  22693026.68440  22693031.58840
 122721384.01340  95627045.01840  23353096.96000  23353094.80540  23353097.55040
 117436384.26140  91339433.65740  21953488.17900  21953488.12040  21953499.14240
 117195981.18140  91321552.80840  22301646.80100  22301647.33240  22301654.58640
 109287687.70240  85159274.59840  20796752.88500  20796751.44740  20796754.14340
 17  1 13  0 47 30.0000000  0 15R24G17G12G15G06R15R14G13R13R17G28G02
                                R23G24G19
 103366714.96840  80396369.68540  19330091.56800  19330090.74740  19330097.05740
 109354480.17540  85211295.99140  20809465.45800  20809465.20240  20809469.04540
 128349146.17940 100012336.28640  24424029.06000  24424028.47140  24424033.76840
 125589741.65740  97862144.97240  23898935.60600  23898935.22840  23898941.67340
 111734759.25340  87066071.32340  21262414.13800  21262414.70240  21262422.17640
 118569557.92840  92220801.83040  22188673.93000  22188673.93840  22188684.30340
 104055389.28140  80931991.69340  19520516.87600  19520516.71640  19520527.25640
 124613577.31940  97101496.16240  23713179.88300  23713180.43340  23713186.38540
 109170778.64140  84910621.20640  20444178.52000  20444177.96040  20444187.14740
 110919590.36240  86270830.71240  20727974.56800  20727974.60740  20727982.54640
 119326967.21640  92982056.24240  22707167.93000  22707167.52240  22707172.42940
 122603752.07740  95535383.90940  23330710.67300  23330709.82240  23330715.43640
 117548780.92440  91426853.25840  21974500.21600  21974498.40240  21974509.45040
 117118242.05840  91260976.89840  22286852.84800  22286854.03340  22286861.62840
 109310901.92240  85177363.60040  20801169.93900  20801169.05440  20801171.86940
 17  1 13  0 48  0.0000000  0 15R24G17G12G15G06R15R14G13R13R17G28G02
                                R23G24G19
 103397604.29140  80420394.72040  19335867.43800  19335866.97940  19335873.58540
 109414186.52940  85257820.41240  20820826.48400  20820826.90740  20820831.06640
 128274305.76440  99954019.15240  24409786.89200  24409786.51940  24409792.92940
 125643202.57940  97903802.84440  23909109.15000  23909108.75040  23909114.25340
 111667530.19240  87013685.04940  21249620.99800  21249621.27040  21249628.89740
 118457861.67240  92133927.05640  22167771.71300  22167772.01840  22167781.09740
 104003755.29640  80891831.92440  19510830.54600  19510830.47340  19510840.46040
 124698626.36140  97167768.07140  23729366.52900  23729367.48340  23729369.69240
 109235856.41740  84961237.21640  20456366.57400  20456365.14940  20456374.44140
 110834781.22240  86204868.08440  20712126.33400  20712125.98540  20712133.37240
 119401430.11040  93040079.24140  22721337.39200  22721337.39540  22721342.31540
 122486211.52140  95443793.82840  23308343.83000  23308342.92240  23308347.67340
 117661356.41940  91514411.91540  21995544.58000  21995543.80740  21995553.95940
 117040868.87940  91200686.13640  22272129.67200  22272130.72940  22272137.57340
 109334443.68640  85195707.83140  20805649.92200  20805648.86340  20805651.57940
 17  1 13  0 48 30.0000000  0 15R24G17G12G15G06R15R14G13R13R17G28G02
                                R23G24G19
 103429128.99140  80444913.93640  19341761.93700  19341762.32640  19341768.39640
 109474196.05640  85304581.07040  20832246.66800  20832246.41840  20832250.75740
 128199421.07840  99895667.48840  24395537.98000  24395537.64940  24395540.86940
 125696929.13140  97945667.71340  23919331.41700  23919331.38240  23919339.64340
 111600753.96240  86961651.64140  21236913.74500  21236914.26340  21236921.81840
 118346255.73340  92047122.47140  22146884.98400  22146886.24340  22146897.21140
 103952603.38440  80852047.11140  19501234.43900  19501234.41640  19501244.72640
 124783768.46640  97234112.50440  23745568.83300  23745566.45740  23745574.91940
 109301471.59740  85012271.21440  20468653.89400  20468652.96840  20468661.45940
 110750496.62440  86139313.42240  20696374.51100  20696374.89840  20696382.81540
 119476044.71940  93098220.46140  22735536.50800  22735536.12540  22735541.12140
 122368764.78440  95352276.92740  23285995.01300  23285994.26040  23285996.49340
 117774107.02140  91602106.76940  22016621.67200  22016620.67440  22016631.76440
 116963863.12840  91140681.68040  22257476.33300  22257476.92640  22257483.86840
 109358311.29740  85214305.97040  20810192.04100  20810190.88940  20810193.47840
 17  1 13  0 49  0.0000000  0 15R24G17G12G15G06R15R14G13R13R17G28G02
                                R23G24G19
 103461286.44740  80469925.29540  19347776.77100  19347775.99540  19347782.64340
 109534506.50340  85351576.23040  20843723.20100  20843723.17040  20843726.85240
 128124492.40140  99837281.54040  24381280.12700  24381278.75040  24381284.66240
 125750919.05840  97987737.71740  23929607.20200  23929607.06840  23929612.35740
 111534433.28140  86909973.20740  21224294.01200  21224294.28340  21224301.41140
 118234744.02740  91960391.18340  22126018.52800  22126018.85740  22126028.72040
 103901937.33440  80812640.19040  19491730.02700  19491729.32740  19491739.82340
 124869000.78240  97300527.21140  23761788.31600  23761786.48940  23761792.79540
 109367624.02440  85063723.06440  20481041.68300  20481040.94940  20481049.94140
 110666738.41240  86074168.18540  20680723.25800  20680723.26740  20680730.63740
 119550810.96340  93156479.84140  22749764.75100  22749763.48640  22749768.76140
 122251415.41240  95260836.00840  23263662.18800  23263662.67940  23263667.18040
 117887029.68740  91689935.46340  22037731.87600  22037731.02140  22037741.39140
 116887228.41040  91080966.33640  22242893.02900  22242893.66040  22242900.37340
 109382502.97440  85233156.63340  20814794.85500  20814794.03940  20814796.83640
 17  1 13  0 49 30.0000000  0 15R24G17G12G15G06R15R14G13R13R17G28G02
                                R23G24G19
 103494073.93340  80495426.67240  19353906.79200  19353907.05840  19353913.69240
 109595115.51040  85398804.02440  20855256.78700  20855256.87740  20855260.60840
 128049519.64440  99778861.25540  24367010.92100  24367011.81140  24367016.42640
 125805169.10240  98030010.44340  23939930.65800  23939929.07940  23939937.49840
 111468570.48640  86858651.56340  21211760.28100  21211760.67940  21211767.72140
 118123328.86740  91873734.98740  22105169.79700  22105168.58540  22105178.87140
 103851759.85840  80773613.26440  19482317.03400  19482316.42940  19482326.79540
 124954320.00240  97367009.62540  23778022.36200  23778024.35240  23778027.68340
 109434312.60540  85115591.94140  20493530.04000  20493529.50540  20493538.46440
 110583508.22240  86009433.61140  20665168.79400  20665169.27140  20665177.39240
 119625729.52240  93214857.90940  22764020.74000  22764020.20040  22764025.59740
 122134166.17240  95169472.93640  23241350.02900  23241350.15940  23241353.48940
 118000120.38140  91777894.85040  22058873.86200  22058871.75440  22058882.21940
 116810967.11540  91021541.96840  22228381.65600  22228381.66940  22228388.26640
 109407017.60240  85252258.93640  20819460.51900  20819459.35440  20819462.00940
 17  1 13  0 50  0.0000000  0 16R24G17G12G15G06R15R14G13R13R17G28G02
                                R23G30G24G19
 103527488.69740  80521415.93440  19360155.94700  19360155.97840  19360161.95540
 109656021.23040  85446263.02540  20866846.77500  20866846.61440  20866850.78940
 127974503.31940  99720407.05940  24352738.03900  24352736.19840  24352741.66240
 125859676.75140  98072483.86240  23950301.10500  23950303.22040  23950306.33840
 111403167.83140  86807688.48240  21199314.67900  21199315.19840  21199322.04840
 118012013.83540  91787156.68940  22084337.61000  22084337.50040  22084347.52440
 103802074.32340  80734968.96540  19472995.35100  19472995.36440  19473005.76640
 125039723.29140  97433557.55540  23794274.49200  23794275.20940  23794278.87440
 109501537.06840  85167877.61740  20506119.30100  20506118.55140  20506126.75040
 110500807.72640  85945111.03540  20649714.28800  20649714.39340  20649723.10140
 119700799.53840  93273353.99240  22778305.58600  22778305.70140  22778310.20040
 122017019.99840  95078190.34840  23219057.30200  23219057.57740  23219062.80440
 118113375.52640  91865982.16740  22080044.12300  22080043.72040  22080055.39640
         0.00040         0.00040  24674322.58900         0.00040         0.00040
 116735081.50540  90962410.34140  22213941.12800  22213941.08940  22213947.46440
 109431853.04640  85271611.23140  20824186.28700  20824185.28340  20824188.00740
 17  1 13  0 50 30.0000000  0 16R24G17G12G15G06R15R14G13R13R17G28G02
                                R23G30G24G19
 103561528.25640  80547891.14440  19366521.82900  19366521.21940  19366527.97840
 109717221.50840  85493951.54840  20878492.55100  20878492.63640  20878496.80140
 127899444.08940  99661919.41140  24338452.49700  24338452.95040  24338458.41140
 125914439.36640  98115156.01940  23960722.16200  23960723.34540  23960728.42940
 111338228.01540  86757086.05440  21186956.56400  21186957.14740  21186964.39540
 117900802.72140  91700659.20140  22063526.32400  22063526.44240  22063536.33140
 103752883.72740  80696709.60540  19463767.81500  19463767.36440  19463777.55040
 125125207.57040  97500168.60240  23810542.23300  23810542.56240  23810548.16040
 109569296.31640  85220579.22040  20518808.60400  20518807.70940  20518816.52040
 110418639.21040  85881202.20940  20634359.86700  20634359.66840  20634367.21240
 119776021.29540  93331968.31140  22792620.45900  22792620.86740  22792625.80040
 121899980.04240  94986990.42440  23196786.19800  23196786.21540  23196790.64640
 118226792.05940  91954194.96540  22101245.20000  22101245.39440  22101256.21840
         0.00040         0.00040  24694894.76600         0.00040         0.00040
 116659574.91840  90903574.05540  22199572.85900  22199572.94540  22199579.64240
 109457008.23040  85291212.66940  20828973.22800  20828972.13740  20828974.78540
 17  1 13  0 51  0.0000000  0 16R24G17G12G15G06R15R14G13R13R17G28G02
                                R23G30G24G19
 103596189.65140  80574849.99940  19373003.64000  19373003.38040  19373009.90440
 109778713.85340  85541867.65840  20890193.83100  20890194.14240  20890198.19640
 127824341.63040  99603398.05040  24324161.42000  24324161.93240  24324167.06240
 125969454.01940  98158024.55040  23971193.84100  23971193.10340  23971198.09340
 111273753.27040  86706846.01340  21174687.96200  21174688.25940  21174695.08540
 117789698.07440  91614244.53340  22042733.78400  22042734.77940  22042744.63240
 103704191.69940  80658838.03040  19454632.74500  19454632.61940  19454643.43340
 125210769.87840  97566840.44940  23826823.83400  23826822.48440  23826828.79040
 109637589.48940  85273696.10140  20531598.84300  20531596.80840  20531605.81140
 110337003.95540  85817708.14740  20619103.78300  20619103.81240  20619111.54140
 119851394.49240  93390700.62240  22806962.53800  22806962.94040  22806968.19440
 121783048.93540  94895875.36140  23174534.89800  23174534.74540  23174539.31440
 118340366.06340  92042530.26640  22122477.22500  22122477.44740  22122488.13440
         0.00040         0.00040  24715478.94200         0.00040         0.00040
 116584449.09040  90845034.46440  22185277.18700  22185277.17540  22185283.47040
 109482481.12940  85311061.67540  20833820.10200  20833819.37140  20833822.03740
 17  1 13  0 51 30.0000000  0 16R24G17G12G15G06R15R14G13R13R17G28G02
                                R23G30G24G19
 103631470.13440  80602290.37740  19379600.97600  19379601.28740  19379607.80140
 109840495.78940  85590009.42840  20901951.11900  20901951.05940  20901955.07640
 127749195.73540  99544842.82240  24309862.96700  24309862.00740  24309865.33940
 126024717.67440  98201087.06040  23981707.17300  23981708.69740  23981716.93340
 111209745.81440  86656970.09940  21162506.94500  21162507.81040  21162515.27340
 117678703.31540  91527915.31640  22021963.40900  22021962.18740  22021972.64340
 103656001.25240  80621356.57140  19445592.27100  19445592.29840  19445602.67340
 125296407.23540  97633570.82340  23843120.98300  23843119.31240  23843127.44640
 109706415.72640  85327227.59440  20544486.29300  20544485.68340  20544494.91140
 110255903.77440  85754630.25640  20603947.95500  20603948.18440  20603956.41840
 119926918.95740  93449550.81340  22821334.70000  22821334.32040  22821339.97340
 121666229.72940  94804847.45140  23152303.59100  23152302.64940  23152307.60440
 118454094.07640  92130985.35240  22143737.74300  22143738.08840  22143749.12340
         0.00040         0.00040  24736081.53810         0.00040         0.00040
 116509706.72240  90786793.67740  22171053.77400  22171053.73740  22171060.84940
 109508270.59840  85331157.36340  20838728.02300  20838727.06240  20838729.91640
 17  1 13  0 52  0.0000000  0 16R24G17G12G15G06R15R14G13R13R17G28G02
                                R23G30G24G19
 103667366.68740  80630209.92240  19386314.12800  19386314.11540  19386320.44640
 109902565.34540  85638375.31140  20913762.38000  20913762.23240  20913766.52540
 127674007.19440  99486254.35040  24295553.11900  24295552.60540  24295557.43540
 126080227.63340  98244341.50540  23992271.03200  23992270.01140  23992277.97140
 111146207.98440  86607460.13240  21150416.54500  21150417.11640  21150424.25540
 117567821.55040  91441673.99240  22001214.25900  22001212.93640  22001222.48440
 103608315.11440  80584267.35640  19436647.30600  19436646.65940  19436657.30640
 125382116.19540  97700356.99540  23859431.98900  23859433.79240  23859438.93540
 109775773.67440  85381172.63240  20557475.69600  20557474.56940  20557483.00040
 110175340.15040  85691969.67340  20588892.93800  20588893.23940  20588900.87540
 120002594.48840  93508518.71140  22835736.19800  22835735.22640  22835740.06540
 121549525.24340  94713908.93440  23130097.55300  23130097.35240  23130100.12940
 118567972.42840  92219557.33940  22165026.62600  22165026.46940  22165037.61140
         0.00040         0.00040  24756705.13800         0.00040         0.00040
 116435350.52740  90728853.78140  22156904.53200  22156904.77740  22156910.85840
 109534375.04240  85351498.48940  20843695.72700  20843694.57540  20843697.31040
 17  1 13  0 52 30.0000000  0 16R24G17G12G15G06R15R14G13R13R17G28G02
                                R23G30G24G19
 103703876.92740  80658606.78240  19393141.71000  19393141.38440  19393147.84540
 109964920.11540  85686963.43440  20925628.23400  20925628.32440  20925632.00040
 127598775.85640  99427632.59640  24281235.98800  24281237.16140  24281242.76840
 126135981.28640  98287785.88740  24002882.94500  24002882.93440  24002886.46640
 111083142.12840  86558317.92740  21138415.71900  21138416.14240  21138422.88940
 117457056.10840  91355523.15140  21980483.58900  21980484.37640  21980494.64940
 103561136.43540  80547572.82840  19427796.38800  19427795.97040  19427806.24940
 125467894.08640  97767196.86740  23875754.19000  23875753.78240  23875757.35140
 109845662.82940  85435530.82940  20570563.67700  20570562.55040  20570571.47340
 110095314.81140  85629727.76840  20573938.91700  20573939.01140  20573946.11940
 120078421.02640  93567604.30940  22850165.59300  22850164.62940  22850167.57240
 121432938.68040  94623062.30940  23107912.34600  23107911.51040  23107914.83340
 118681997.91140  92308243.77040  22186342.76400  22186342.54240  22186354.47740
         0.00040         0.00040  24777330.74010         0.00040         0.00040
 116361382.73440  90671216.56040  22142828.90600  22142828.73640  22142835.52740
 109560792.25840  85372083.33640  20848723.00800  20848721.70040  20848724.31640
 17  1 13  0 53  0.0000000  0 16R24G17G12G15G06R15R14G13R13R17G28G02
                                R23G30G24G19
 103740997.83040  80687478.59140  19400083.68300  19400083.44140  19400089.92440
 110027558.19140  85735772.32240  20937547.64200  20937547.83640  20937551.81940
 127523501.95640  99368977.62440  24266914.43200  24266913.36640  24266918.78240
 126191975.61940  98331417.78340  24013533.80200  24013537.20440  24013541.66540
 111020550.64840  86509545.36940  21126504.99000  21126505.16240  21126512.36840
 117346410.28440  91269465.32040  21959779.56500  21959779.01840  21959789.28240
 103514468.57440  80511275.59240  19419041.53200  19419041.54440  19419051.86240
 125553737.88040  97834088.08040  23892088.49600  23892090.02940  23892092.81440
 109916082.29440  85490301.48540  20583750.66400  20583749.86040  20583758.50540
 110015829.54540  85567905.94640  20559084.01400  20559084.49740  20559093.03540
 120154398.41840  93626807.43240  22864622.02400  22864622.34840  22864628.76040
 121316472.86740  94532309.81240  23085748.47800  23085747.82840  23085751.18540
 118796167.09540  92397041.98440  22207686.30700  22207685.83040  22207696.52140
         0.00040         0.00040  24797983.98100         0.00040         0.00040
 116287806.60340  90613884.51440  22128826.74300  22128827.76940  22128834.45140
 109587521.02840  85392910.94640  20853808.50800  20853807.74640  20853810.72040
 17  1 13  0 53 30.0000000  0 16R24G17G12G15G06R15R14G13R13R17G28G02
                                R23G30G24G19
 103778726.53140  80716823.13840  19407138.97500  19407138.73140  19407144.96140
 110090477.20840  85784800.11540  20949519.68200  20949520.45940  20949525.17440
 127448185.88940  99310289.82140  24252577.17600  24252579.30640  24252586.73340
 126248207.84740  98375235.11840  24024236.73800  24024237.73040  24024244.17040
 110958435.86140  86461144.27040  21114684.41400  21114685.00040  21114692.51540
 117235887.67340  91183503.33140  21939093.57100  21939095.70940  21939106.10640
 103468314.32940  80475377.84940  19410382.83300  19410382.78340  19410392.80340
 125639644.68140  97901028.38940  23908436.19700  23908436.10940  23908437.49140
 109987031.09440  85545483.85840  20597037.67400  20597035.87840  20597045.21840
 109936885.87540  85506505.32240  20544333.07300  20544332.17740  20544339.73340
 120230526.46240  93686127.96140  22879111.05400  22879109.36640  22879115.16040
 121200130.60340  94441653.56040  23063609.01500  23063609.36740  23063612.62340
 118910476.26740  92485949.08740  22229054.33400  22229053.98840  22229065.58340
         0.00040         0.00040  24818640.98500         0.00040         0.00040
 116214624.17240  90556859.26340  22114901.99900  22114901.51940  22114908.66140
 109614559.83340  85413980.14740  20858954.58800  20858953.27940  20858955.70440
 17  1 13  0 54  0.0000000  0 16R24G17G12G15G06R15R14G13R13R17G28G02
                                R23G30G24G19
 103817060.13240  80746638.16440  19414307.74500  19414307.58340  19414314.07540
 110153674.69440  85834044.89740  20961546.54500  20961546.79840  20961550.70740
 127372827.60940  99251569.20040  24238239.64900  24238239.04840  24238244.53140
 126304674.79440  98419235.23540  24034982.57600  24034982.92240  24034989.83640
 110896799.78440  86413116.17140  21102955.33200  21102956.05540  21102963.76940
 117125491.06240  91097639.33540  21918434.53400  21918434.91040  21918445.72040
 103422677.10040  80439882.22440  19401821.99300  19401821.41240  19401832.05240
 125725610.88440  97968015.01140  23924797.17100  23924795.22840  23924798.55240
 110058507.78940  85601076.80440  20610423.77800  20610421.94340  20610429.93640
 109858485.29740  85445527.11640  20529681.90500  20529681.72140  20529688.98540
 120306804.88940  93745565.66140  22893623.90000  22893624.39740  22893629.13840
 121083915.07940  94351096.06440  23041493.90900  23041492.71940  23041498.73740
 119024922.11240  92574962.46040  22250448.65300  22250448.41240  22250460.01340
         0.00040         0.00040  24839318.28410         0.00040         0.00040
 116141837.54740  90500142.43340  22101051.06000  22101050.73540  22101057.18740
 109641906.76540  85435289.44240  20864157.56400  20864157.04740  20864159.83840
 17  1 13  0 54 30.0000000  0 16R24G17G12G15G06R15R14G13R13R17G28G02
                                R23G30G24G19
 103855995.94940  80776921.57440  19421589.45500  19421588.70340  19421595.57340
 110217148.98240  85883505.38140  20973625.61500  20973625.71740  20973629.36140
 127297427.64540  99192816.02040  24223892.18100  24223892.07740  24223895.00740
 126361373.78840  98463416.24740  24045772.85500  24045773.91340  24045776.71140
 110835644.99640  86365463.10640  21091318.39000  21091318.86740  21091326.15140
 117015224.38740  91011876.38940  21897800.38500  21897801.08540  21897810.76640
 103377560.02340  80404791.16640  19393357.80300  19393357.40740  19393368.29140
 125811634.06840  98035045.98040  23941161.86600  23941163.62440  23941168.74340
 110130511.70440  85657079.81240  20623907.00400  20623905.70440  20623914.25340
 109780629.42040  85384972.58440  20515130.87800  20515131.31140  20515140.36740
 120383233.88740  93805120.65640  22908169.35600  22908168.65540  22908172.84840
 120967829.33340  94260639.71340  23019403.36300  23019402.55840  23019406.97140
 119139501.12940  92664079.39640  22271869.63000  22271867.97440  22271878.39540
         0.00040         0.00040  24860004.15910         0.00040         0.00040
 116069450.22240  90443736.74540  22087275.34700  22087275.91240  22087282.58640
 109669560.58140  85456837.87040  20869420.10100  20869419.42140  20869422.23140
 17  1 13  0 55  0.0000000  0 15R24G17G12G15G06R15R14G13R13R17G28G02
                                R23G24G19
 103895530.70940  80807670.82840  19428981.24700  19428981.93540  19428988.08640
 110280897.27840  85933179.36940  20985756.33000  20985756.38340  20985760.66040
 127221986.06440  99134030.38740  24209537.31500  24209536.85840  24209540.01740
 126418301.95540  98507775.80840  24056607.50400  24056605.01940  24056612.28940
 110774973.45840  86318186.60540  21079772.87700  21079773.50040  21079780.64140
 116905090.47740  90926216.72140  21877192.92500  21877191.94140  21877201.60840
 103332965.98740  80370106.91840  19384991.78500  19384991.72940  19385002.18840
 125897711.14640  98102118.88240  23957543.05300  23957548.57640  23957550.07840
 110203041.51140  85713491.86040  20637489.37500  20637487.96140  20637496.79040
 109703319.62940  85324842.76740  20500684.67000  20500684.85440  20500692.46840
 120459812.81540  93864792.51140  22922741.86800  22922741.43540  22922746.46240
 120851876.20640  94170286.71040  22997337.65900  22997337.64140  22997341.96840
 119254209.87940  92753297.26040  22293311.63100  22293311.31140  22293322.22640
 115997463.79340  90387643.44340  22073576.77900  22073577.51740  22073583.47140
 109697518.96340  85478623.61640  20874741.18000  20874739.84240  20874742.54940
 17  1 13  0 55 30.0000000  0 15R24G17G12G15G06R15R14G13R13R17G28G02
                                R23G24G19
 103935661.54240  80838883.69340  19436486.40200  19436486.77440  19436493.22940
 110344917.64640  85983065.35640  20997939.44400  20997939.15540  20997943.25440
 127146503.01440  99075212.50640  24195172.27800  24195172.09440  24195177.26340
 126475456.70440  98552311.94440  24067483.76100  24067481.14340  24067487.16040
 110714787.56740  86271288.53440  21068319.78100  21068320.60140  21068327.64540
 116795093.07440  90840663.23040  21856607.27400  21856607.15840  21856616.96640
 103288898.62540  80335832.30240  19376724.18800  19376724.67640  19376735.25340
 125983839.10340  98169231.56740  23973935.85500  23973934.83840  23973939.27640
 110276096.34140  85770312.24940  20651170.97900  20651169.21340  20651177.93740
 109626557.65440  85265139.03640  20486340.43200  20486339.99340  20486347.34540
 120536542.40340  93924581.76440  22937343.03500  22937342.59340  22937347.12140
 120736058.78740  94080039.40640  22975298.96700  22975298.08940  22975302.35740
 119369045.01540  92842613.44040  22314780.60800  22314779.01940  22314790.22340
 115925881.32640  90331864.91940  22059955.45900  22059955.60840  22059962.18540
 109725781.06740  85500646.03440  20880118.90500  20880117.86640  20880120.55940
 17  1 13  0 56  0.0000000  0 15R24G17G12G15G06R15R14G13R13R17G28G02
                                R23G24G19
 103976385.29940  80870557.72540  19444102.34300  19444101.81540  19444109.11640
 110409208.12840  86033161.81640  21010174.19500  21010173.71540  21010177.29140
 127070979.23140  99016362.83940  24180798.45000  24180800.61840  24180807.07840
 126532835.21740  98597022.37440  24078397.90100  24078398.80840  24078406.28440
 110655089.34840  86224770.46340  21056959.55800  21056960.27340  21056967.07740
 116685234.86340  90755217.99540  21836050.25000  21836049.79440  21836058.78240
 103245360.36140  80301969.21640  19368558.14900  19368557.45840  19368567.80840
 126070014.69640  98236381.35040  23990331.24700  23990332.14940  23990340.72840
 110349675.18040  85827540.21440  20664948.21100  20664947.90440  20664956.80940
 109550344.69740  85205862.31640  20472097.09000  20472097.62740  20472105.20240
 120613422.27640  93984488.10640  22951972.71800  22951973.16440  22951978.02740
 120620379.86640  93989900.04840  22953286.88800  22953285.81640  22953289.06940
 119484003.33840  92932025.41340  22336269.03700  22336269.57240  22336279.17240
 115854704.75940  90276402.69440  22046410.70400  22046410.76640  22046417.39940
 109754345.18240  85522903.77740  20885554.44800  20885553.53740  20885556.23840
 17  1 13  0 56 30.0000000  0 16R24G17G12G15G06R15R14G13R13R17G28G02
                                R23G30G24G19
 104017699.15640  80902690.70940  19451828.40200  19451828.03240  19451834.20940
 110473766.47040  86083466.99940  21022459.18600  21022458.55840  21022462.93440
 126995414.24540  98957481.06940  24166420.51500  24166422.06540  24166425.24040
 126590434.25540  98641904.69340  24089359.40000  24089360.59240  24089366.75140
 110595880.85940  86178633.99440  21045692.28100  21045693.13840  21045700.72540
 116575519.62440  90669883.96740  21815517.12300  21815516.53440  21815526.05840
 103202354.37040  80268520.11040  19360489.74700  19360489.41240  19360499.71140
         0.00040         0.00040  24006738.51000         0.00040         0.00040
 110423776.50440  85885174.53440  20678824.15800  20678824.31740  20678833.54340
 109474682.13840  85147013.69840  20457958.18200  20457957.78240  20457966.20240
 120690451.54940  94044510.88140  22966630.81400  22966629.93240  22966634.62140
 120504842.15540  93899870.74040  22931300.16500  22931298.95240  22931302.36640
 119599081.02540  93021530.22940  22357782.48800  22357782.65040  22357791.55940
         0.00040         0.00040  24942883.00100         0.00040         0.00040
 115783936.79740  90221258.85140  22032944.89700  22032944.27440  22032950.74940
 109783209.41040  85545395.37340  20891047.04600  20891046.10740  20891049.00540
 17  1 13  0 57  0.0000000  0 15R24G17G12G15G06R15R14G13R13R17G28G02
                                R23G24G19
 104059600.37840  80935280.54040  19459663.21000  19459663.78240  19459670.54940
 110538589.95540  86133978.79440  21034794.14300  21034794.18940  21034797.98040
 126919808.71940  98898567.72040  24152032.59000  24152034.50740  24152038.59940
 126648250.84640  98686956.60440  24100365.88200  24100363.96440  24100369.97640
 110537164.41740  86132880.94440  21034519.20600  21034519.75840  21034527.06040
 116465950.78040  90584663.78940  21795012.98900  21795012.95040  21795022.16840
 103159883.40940  80235487.13740  19352521.36700  19352521.84240  19352532.28740
         0.00040         0.00040  24023152.54710         0.00040         0.00040
 110498399.40940  85943214.54840  20692800.52400  20692799.40340  20692808.24040
 109399571.62640  85088594.43140  20443922.53500  20443922.40340  20443929.31040
 120767630.33740  94104650.11840  22981316.89700  22981315.58540  22981322.10240
 120389449.05340  93809954.07340  22909339.89900  22909341.03640  22909344.04740
 119714274.92640  93111125.46440  22379316.70900  22379315.62040  22379327.56540
 115713580.08040  90166435.46240  22019555.52900  22019556.14840  22019562.63140
 109812372.17640  85568119.60540  20896596.26200  20896595.67540  20896598.41440
 17  1 13  0 57 30.0000000  0 15R24G17G12G15G06R15R14G13R13R17G28G02
                                R23G24G19
 104102085.74140  80968324.69940  19467609.11300  19467609.07840  19467615.15240
 110603676.74840  86184695.75940  21047179.57400  21047179.48640  21047183.79140
 126844163.09240  98839623.15840  24137638.32500  24137638.75940  24137643.07540
 126706282.50340  98732175.97040  24111405.67200  24111405.97640  24111412.89840
 110478942.36540  86087513.13540  21023439.66500  21023440.38540  21023447.55940
 116356531.84140  90499560.22440  21774536.41500  21774536.11240  21774545.52140
 103117950.88240  80202872.95040  19344656.10900  19344655.90540  19344665.91940
         0.00040         0.00040  24039579.30000         0.00040         0.00040
 110573542.82640  86001659.40540  20706872.34300  20706871.08140  20706880.63740
 109325014.55640  85030605.61740  20429989.46200  20429989.30540  20429997.08840
 120844958.86040  94164906.12440  22996033.32400  22996032.87740  22996036.33240
 120274203.69240  93720152.57240  22887412.90200  22887411.54040  22887413.14140
 119829581.78940  93200808.52840  22400872.28900  22400871.50340  22400880.83640
 115643637.09140  90111934.44740  22006245.85800  22006246.03440  22006252.67640
 109841831.99340  85591075.29640  20902202.97900  20902201.69440  20902204.29640
 17  1 13  0 58  0.0000000  0 15R24G17G12G15G06R15R14G13R13R17G28G02
                                R23G24G19
 104145152.31340  81001820.91040  19475662.72500  19475662.39840  19475668.93140
 110669024.96040  86235616.43940  21059614.64100  21059614.89240  21059619.20740
 126768477.61240  98780647.46440  24123236.32100  24123235.80940  24123242.35240
 126764526.42440  98777560.79140  24122489.57200  24122492.37640  24122497.18440
 110421216.72440  86042532.13040  21012455.47300  21012455.80040  21012462.46640
 116247266.27440  90414575.93840  21754089.90900  21754089.16440  21754099.30740
 103076559.87540  80170679.93840  19336890.83200  19336890.57840  19336901.49640
         0.00040         0.00040  24056006.40900         0.00040         0.00040
 110649205.75940  86060508.32940  20721041.10200  20721040.87140  20721049.47240
 109251012.51140  84973048.50840  20416159.02000  20416159.86840  20416168.32240
 120922436.78440  94225278.49140  23010776.46700  23010775.76740  23010781.47340
 120159108.44440  93630467.97840  22865508.78500  22865508.52140  22865511.49040
 119944998.48040  93290577.04240  22422448.30600  22422448.12440  22422457.95740
 115574110.11140  90057757.59440  21993015.60000  21993015.83140  21993022.04540
 109871587.25440  85614261.21540  20907864.85300  20907863.75340  20907866.95740
 17  1 13  0 58 30.0000000  0 16R24G17G12G15G06R15R14G13R13R17G28G02
                                R23G30G24G19
 104188796.98640  81035766.77340  19483823.43100  19483824.43140  19483830.53740
 110734632.04340  86286738.82540  21072099.41900  21072099.50540  21072103.88040
 126692752.08040  98721640.60740  24108826.23200  24108827.38340  24108831.56940
 126822979.41140  98823108.46940  24133615.11000  24133613.57440  24133619.44240
 110363989.52740  85997939.52340  21001564.92400  21001565.55640  21001572.93240
 116138157.44940  90329713.56940  21733671.86100  21733670.71240  21733680.43240
 103035713.28340  80138910.36840  19329228.38200  19329228.07440  19329238.29340
         0.00040         0.00040  24072442.63900         0.00040         0.00040
 110725387.01940  86119760.39940  20735307.74100  20735306.73840  20735315.49340
 109177566.47740  84915923.86240  20402434.68000  20402435.05840  20402443.14240
 121000063.69540  94285766.94240  23025548.68700  23025547.84740  23025552.76240
 120044166.61840  93540902.96540  22843636.49200  22843634.89240  22843639.47540
 120060521.35240  93380428.10740  22444045.26200  22444044.29240  22444054.02040
         0.00040         0.00040  25025934.17610         0.00040         0.00040
 115505001.67940  90003906.88940  21979864.82700  21979864.58640  21979871.38040
 109901635.96440  85637675.77640  20913582.59900  20913581.87240  20913584.95640
 17  1 13  0 59  0.0000000  0 15R24G17G12G15G06R15R14G13R13R17G28G02
                                R23G24G19
 104233016.66440  81070159.84540  19492093.59600  19492093.43940  19492099.78940
 110800495.47440  86338060.96740  21084633.24000  21084633.05440  21084637.05940
 126616986.76540  98662602.76440  24094408.42400  24094409.19740  24094413.77540
 126881637.99740  98868816.45440  24144774.73600  24144774.22240  24144782.75640
 110307262.70240  85953736.83040  20990770.20300  20990770.96140  20990777.91740
 116029208.62240  90244975.63440  21713279.90700  21713281.42440  21713291.83140
 102995413.60940  80107566.17540  19321668.62600  19321667.77440  19321678.40540
         0.00040         0.00040  24088884.35100         0.00040         0.00040
 110802084.36340  86179413.85540  20749671.28500  20749669.66240  20749678.58340
 109104677.85040  84859232.74040  20388813.63600  20388814.01040  20388821.67140
 121077839.22240  94346371.18840  23040349.06200  23040348.29940  23040352.94740
 119929381.29640  93451459.93340  22821790.91000  22821789.42840  22821794.85140
 120176147.11640  93470359.21440  22465659.76500  22465658.50440  22465669.91140
 115436314.10040  89950384.10740  21966794.08700  21966794.38240  21966800.52040
 109931976.07040  85661317.41640  20919356.52500  20919355.49740  20919358.10540
 17  1 13  0 59 30.0000000  0 15R24G17G12G15G06R15R14G13R13R17G28G02
                                R23G24G19
 104277808.32340  81104997.79140  19500470.21000  19500469.79940  19500476.27540
 110866613.69740  86389581.64140  21097215.15300  21097214.91940  21097219.20340
 126541182.77440  98603534.76140  24079984.46500  24079983.60440  24079989.63140
 126940500.60740  98914683.39840  24155977.27600  24155976.59840  24155983.41840
 110251038.67840  85909925.91540  20980071.06900  20980071.72740  20980079.15240
 115920423.80240  90160365.27140  21692924.29200  21692923.93540  21692933.58240
 102955664.23840  80076650.00940  19314211.57100  19314211.11340  19314221.33540
         0.00040         0.00040  24105330.97200         0.00040         0.00040
 110879297.45240  86239468.46640  20764130.43500  20764129.41040  20764138.39840
 109032347.98740  84802976.21340  20375297.65500  20375297.56540  20375305.10740
 121155763.88340  94407091.66340  23055178.78100  23055176.91240  23055181.56840
 119814755.49040  93362141.16240  22799981.52400  22799980.49140  22799983.19940
 120291872.41440  93560367.71040  22487291.63900  22487291.88240  22487303.07640
 115368050.14940  89897191.44140  21953803.69600  21953803.44640  21953810.36540
 109962607.21740  85685185.84340  20925185.15200  20925184.42040  20925187.33340
 17  1 13  1  0  0.0000000  0 15R24G17G12G15G06R15R14G13R13R17G28G02
                                R23G24G19
 104323168.71840  81140278.09340  19508951.74700  19508952.24840  19508958.49740
 110932984.38040  86441299.04440  21109844.86500  21109844.78740  21109848.88840
 126465340.12540  98544436.63940  24065551.50000  24065551.70440  24065554.76840
 126999563.76140  98960706.56340  24167216.81200  24167214.90340  24167223.00340
 110195319.21840  85866508.16440  20969468.85600  20969468.77640  20969475.93940
 115811805.78940  90075884.63840  21672597.48700  21672598.13440  21672607.26740
 102916468.04440  80046164.08040  19306858.83200  19306858.30240  19306867.89240
 126760779.45140  98774680.26240  24121781.59300  24121781.28740  24121787.94640
 110957024.63940  86299922.90940  20778686.91500  20778685.01040  20778694.34540
 108960578.21840  84747155.31440  20361885.62800  20361885.56140  20361893.56840
 121233837.39440  94467928.08640  23070034.87300  23070034.83240  23070038.44140
 119700292.01140  93272948.86940  22778199.96800  22778199.17240  22778201.99540
 120407694.04840  93650451.18440  22508943.09910  22508943.81440  22508955.70340
 115300211.78340  89844330.38940  21940894.37000  21940894.72240  21940901.19140
 109993527.22040  85709279.34940  20931069.13700  20931068.26440  20931071.27540
